"콘텐츠ID","콘텐츠명","구군","위도","경도","장소","제목","부제목","주소","주소 기타 ","연락처","홈페이지","운영 및 시간","대표메뉴","이미지URL","썸네일이미지URL","상세내용"
"70","만드리곤드레밥","강서구","35.177387","128.95245","만드리곤드레밥","만드리곤드레밥","-","강서구 공항앞길 85번길 13","-","051-941-3669","-","11:00a.m. ~ 21:00p.m.","돌솥곤드레정식, 호박오리훈제","https://www.visitbusan.net/uploadImgs/files/cntnts/20191209162810545_ttiel","https://www.visitbusan.net/uploadImgs/files/cntnts/20191209162810545_thumbL","곤드레밥에는 일반적으로 건조 곤드레나물이 사용되는데, 이 곳은 생 곤드레나물을 사용하여 돌솥밥을 만든다. 된장찌개와 함께 열 가지가 넘는 반찬이 제공되는 돌솥곤드레정식이 인기 있다."
"72","만호갈미 샤브샤브","강서구","35.101425","128.92914","만호갈미 샤브샤브","만호갈미 샤브샤브","-","강서구 르노삼성대로 602","-","051-271-4389","-","12:00p.m. ~ 21:30p.m.","갈미샤브샤브, 갈미수육","https://www.visitbusan.net/uploadImgs/files/cntnts/20191216135832825_ttiel","https://www.visitbusan.net/uploadImgs/files/cntnts/20191216135832825_thumbL","샤브샤브, 수육, 구이 등 다양한 방식으로 갈미조개를 요리하는 갈미조개 전문 식당. 국물이 맛있기로 유명한 이 곳은 갈미샤브샤브와 갈미수육이 대표메뉴이다."
"77","민물가든","강서구","35.16055","128.89468","민물가든","민물가든","-","강서구 둔치중앙길5(봉림동)","-","051-971-8428","https://blog.naver.com/rladba1","11:00a.m. ~ 22:00p.m.","묵은지붕어조림, 붕어찜","https://www.visitbusan.net/uploadImgs/files/cntnts/20191217101816206_ttiel","https://www.visitbusan.net/uploadImgs/files/cntnts/20191217101816206_thumbL","30년간 운영해온 생선찜전문점으로, 전통방식인 나무통을 사용하여 조리하는 것이 특징이다. 20가지 이상의 재료로 만든 양념을 사용하는 이 곳은 묵은지 붕어조림과 붕어찜이 대표메뉴이다."
"80","소희네집","강서구","35.012413","128.82826","소희네집","소희네집","-","강서구 가덕해안로1208번길 2-12","-","051-971-8886","-","11:30a.m. ~ 14:00p.m.","해산물정식(4인분), 광어회","https://www.visitbusan.net/uploadImgs/files/cntnts/20191217103310691_ttiel","https://www.visitbusan.net/uploadImgs/files/cntnts/20191217103310691_thumbL","계절별로 다른 재료로 요리하는 해물정식 식당으로, 제철 해산물을 먹을 수 있는 곳이지만, 4인분씩만 주문을 받고 점심시간만 운영하는 등 여러 가지 제약이 있다. 이 곳을 찾을 계획이 있다면 예약이 필수이다."
"90","에프앰커피하우스","부산진구","35.154644","129.06377","에프앰커피하우스","에프앰커피하우스","-","부산 부산진구 전포대로 199번길 26","-","051-803-0926","http://www.fmcoffeehouse.com/","am 09:30 ~ pm 22:30","투모로우 오리지널, 투모로우 모카","https://www.visitbusan.net/uploadImgs/files/cntnts/20200819103100776_ttiel","https://www.visitbusan.net/uploadImgs/files/cntnts/20200819103100776_thumbL","부산의 대표적인 카페거리 전포동카페거리에서 가장 오래된 카페인 이 곳은 로스팅을 주력으로 하여, 커피가 맛있기로 명성이 높은 곳이다. 콜드브루에 생크림을 얹은 대표커피 투모로우 커피는 완벽한 밸런스의 커피 맛을 자랑한다."
"94","가야할매밀면","연제구","35.185196","129.07988","가야할매밀면","가야할매밀면","가야할매밀면","부산 연제구 월드컵대로 145번길 32","-","051-865-8017","-","11:00a.m. ~ 20:00p.m.","물 밀면, 비빔밀면","https://www.visitbusan.net/uploadImgs/files/cntnts/20191217201857896_ttiel","https://www.visitbusan.net/uploadImgs/files/cntnts/20191217201857896_thumbL","부산의 향토음식인 밀면전문점으로, 밀가루에 옥수수 전분을 섞어, 다른 밀면전문점들보다더 탄력있는 면이 특징이다. 육수는 돼지뼈와 소뼈에 각종 야채와 여러 한약재를 섞어 만들 고, 사이드 메뉴인 만두도 인기 있다."
"95","국제밀면","연제구","35.19689","129.07785","국제밀면","국제밀면","국제밀면","부산 연제구 중앙대로 1235번길 23-6","-","051-501-5507","-","10:00a.m. ~ 20:00p.m.","물밀면, 비빔밀면","https://www.visitbusan.net/uploadImgs/files/cntnts/20191217202633906_ttiel","https://www.visitbusan.net/uploadImgs/files/cntnts/20191217202633906_thumbL","부산의 수많은 밀면전문점 중에서도 가장 유명한 식당 중 한 곳으로, 소 사골만을 사용한 육수 등 독창적인 방식의 밀면을 만들고 있다. 보통 기계로 잘려진 편육이 고명으로 올려지 는데, 이 곳은 손으로 일일이 얇게 찢은 양지머리 고기가 올려지는 것이 특징이다."
"102","할매가야밀면","중구","35.098927","129.03125","할매가야밀면","할매가야밀면","-","부산 중구 광복로 56-14","-","051-246-3314","-","10:30a.m. ~ 21:30p.m.","밀면, 비빔밀면","https://www.visitbusan.net/uploadImgs/files/cntnts/20191218003259322_ttiel","https://www.visitbusan.net/uploadImgs/files/cntnts/20191218003259322_thumbL","광복로패션거리의 골목에 위치한 밀면전문점으로, 식사시간에는 항상 긴줄이 늘어서 있는 유명한 식당이다. 간편하게 먹을 수 있는 밀면의 특성과 넓은 매장으로 인해 대기줄이 길지 만, 웨이팅 시간은 짧은 편. 항상 청결하게 관리되는 매장이 인상적이다."
"105","정동진해물탕","부산진구","35.16046","129.05547","정동진해물탕","정동진해물탕","-","부산 부산진구 서면문화로 37","-","051-809-8208","-","am 11:00 ~ pm 23:00","해물찜, 해물탕","https://www.visitbusan.net/uploadImgs/files/cntnts/20200819153940223_ttiel","https://www.visitbusan.net/uploadImgs/files/cntnts/20200819153940223_thumbL","해물탕전문점 중 최대급 규모인 이 곳은 식약청 인증과, 위생등급 최고등급을 받을 정도로 철저하게 위생관리를 하고 있는 식당이다. 대표메뉴인 해물탕과 해물찜은 신선한 재료들과 가장 큰 크기의 꽃게와 새우를 사용하여 만들고 있다."
"111","고고커피","금정구","35.243614","129.09377","고고커피","고고커피","-","금정구 중앙대로1784(부곡동)","-","1544-7355","http://gogocoffee.co.kr","09:00a.m. ~ 18:00p.m.","에티오피아, 부오노드립포트","https://www.visitbusan.net/uploadImgs/files/cntnts/20200818112123234_ttiel","https://www.visitbusan.net/uploadImgs/files/cntnts/20200818112123234_thumbL","고고커피는 커피에 대한 모든 것들을 취급하는 커피 전문 마켓으로, 식자재, 카페용품, 커피머신 등이 진열되어 있어 커피에 관심이 많은 사람이라면 무척 즐거운 시간을 보낼 수있을 것이다."
"113","부산족발","중구","35.099617","129.02708","부산족발","부산족발","-","부산광역시 중구 광복로 19-1","-","051-245-5359","http://www.부산족발.kr","11:00a.m. ~ 01:00a.m.","족발, 냉채족발","https://www.visitbusan.net/uploadImgs/files/cntnts/20200818170431854_ttiel","https://www.visitbusan.net/uploadImgs/files/cntnts/20200818170431854_thumbL","부평동 돼지족발골목에 위치한 족발전문점으로, TV프로그램으로도 자주 소개되는 유명한 식당이다. 이 지역은 부산의 향토음식인 냉채족발이 탄생한 곳으로도 유명한데, 부산족발도 담백하고 탄력 있는 족발과 냉채족발이 유명하다."
"117","뉴숯불바베큐","금정구","35.237766","129.08344","뉴숯불바베큐","뉴숯불바베큐","-","부산 금정구 금강로335번길 55","-","051-514-3885","-","am 10:00 ~ am 12:00","프라이드치킨, 양념치킨","https://www.visitbusan.net/uploadImgs/files/cntnts/20191218101338775_ttiel","https://www.visitbusan.net/uploadImgs/files/cntnts/20191218101338775_thumbL","30년간 운영해 온 이 곳은, 많은 사람들에게 사랑받아온 통닭전문점이다. 신선한 생닭만을 사용하는 이 곳의 대표메뉴는 프라이드치킨과 양념치킨으로, 프라이드치킨은 얇고 바삭한 튀김옷에 카레맛이 나는 것이 특징이다."
"121","더팜471","금정구","35.277657","129.07683","더팜471","더팜471","-","금정구 하마2길 28-17","-","051-518-3355","https://www.instagram.com/cafe_thefarm/","11:00a.m. ~ 22:00p.m.","아메리카노, 수제초코라떼","https://www.visitbusan.net/uploadImgs/files/cntnts/20200818114415318_ttiel","https://www.visitbusan.net/uploadImgs/files/cntnts/20200818114415318_thumbL","유명한 사찰인 범어사 가는 길에 위치한 예쁜 피크닉 카페. 여행가방, 꽃수레, 한쪽 벽면을 채운 장작더미 등 숲 속 별장 같은 느낌의 인테리어가 특징이다. 이 곳의 인기메뉴는 호두타르트."
"127","모모스커피","금정구","35.21928","129.08643","모모스커피","모모스커피","-","금정구 오시게로 20(부곡동)","-","051-512-7034","http://www.momos.co.kr/","am 10:00 ~ pm 21:30","아메리카노, 바닐라라떼","https://www.visitbusan.net/uploadImgs/files/cntnts/20191218104234666_ttiel","https://www.visitbusan.net/uploadImgs/files/cntnts/20191218104234666_thumbL","2019월드 바리스타 챔피언십(WBC) 우승자가 있는 이 곳은 카페의 도시 부산에서도 가장 유명한 카페 중 하나인 모모스커피. 고급 원두를 직접 로스팅하여 커피를 준비하며, 커피에 대한 애정이 가득한 공간이다."
"130","배비장보쌈","금정구","35.24521","129.09148","배비장보쌈","배비장보쌈","-","금정구 금정로 239(구서동)","-","051-515-2106","https://blog.naver.com/bbj77551","am 11:30 ~ pm 23:00","배비장보쌈, 모듬보쌈","https://www.visitbusan.net/uploadImgs/files/cntnts/20191218110206858_ttiel","https://www.visitbusan.net/uploadImgs/files/cntnts/20191218110206858_thumbL","30여년 운영해 온 부산에서 가장 유명한 보쌈식당중 하나로, 보쌈김치와 무채를 매일매일 직접 담근다. 부드러운 삶은 돼지고기와 함께 반찬으로 나오는 계란찜이 무척 인기 있는이 곳은 손님을 대접하기에도 좋은 장소다."
"132","오시게양식당","금정구","35.227173","129.09253","오시게양식당","오시게양식당","-","금정구 부곡로126번길9(부곡동)","-","051-582-7948","-","11:00a.m. ~ 21:00p.m.","오시게피자, 마르게리따","https://www.visitbusan.net/uploadImgs/files/cntnts/20200819143019662_ttiel","https://www.visitbusan.net/uploadImgs/files/cntnts/20200819143019662_thumbL","작은 공간의 이탈리안 비스트로이지만, 사실 아주 유명한 쉐프의 가게이다. 직접 개발한 한국풍피자인 오시게피자가 대표메뉴이며, 다양한 와인과 맥주가 준비되어 있다. 비교적 저렴한 가격으로 수준 높은 이태리음식들을 즐길 수 있는 곳으로, 예약이 필수."
"133","청산별곡","금정구","35.229557","129.07678","청산별곡","청산별곡","-","금정구 금샘로 44 (장전동)","-","051-517-5575","-","am 11:00 ~ pm 21:00","산채비빔밥, 찹쌀파전","https://www.visitbusan.net/uploadImgs/files/cntnts/20191219092334923_ttiel","https://www.visitbusan.net/uploadImgs/files/cntnts/20191219092334923_thumbL","30년 전통의 비빔밥전문점으로, 푸짐하게 차려지는 9가지의 나물을 강된장에 비벼서 먹는 산채비빔밥이 무척 맛있다. 비빔밥 외에도 주인이 추천하는 찹쌀파전이 인기 있는 메뉴."
"137","풍년오리박사","금정구","35.27577","129.08829","풍년오리박사","풍년오리박사","-","금정구 청룡로40","-","051-508-4642","-","am 11:00 ~ pm 21:00","유황오리불고기, 유황오리백숙","https://www.visitbusan.net/uploadImgs/files/cntnts/20200818130844970_ttiel","https://www.visitbusan.net/uploadImgs/files/cntnts/20200818130844970_thumbL","범어사 근처에 위치한 오리요리전문점으로, 많은 시간을 들여 한약재를 사용한 오리요리를 개발했다고 한다. 고추장양념이 된 유황오리불고기가 인기메뉴이며, 식품특허를 가진 청수 오리흑숙 이라는 오리요리는 이 곳에서만 먹을 수 있다."
"141","거대갈비","해운대구","35.161617","129.16696","거대갈비","거대갈비","-","부산 해운대구 달맞이길 22","-","051-746-0037","-","11:30a.m. ~ 22:00p.m.","등심(100g), 프리미엄 갈빗살(100g)","https://www.visitbusan.net/uploadImgs/files/cntnts/20191219093030634_ttiel","https://www.visitbusan.net/uploadImgs/files/cntnts/20191219093030634_thumbL","최상등급의 고기와 최고의 원재료만을 사용한다는 한우숯불구이전문점으로, 깔끔한 실내와 친절한 점원들이 인상적이다. 최상등급의 한우인만큼 가격도 높은 편이지만, 직원이 고기를 구워주는 등 만족도가 높은 식당이다."
"143","수림식당","금정구","35.226673","129.07773","수림식당","수림식당","-","금정구 금샘로7(장전동)","-","070-7779-1931","http://instagram.com/surimkitchen_official","11:00a.m. ~ 21:00p.m.","탄탄면, 우육탕면","https://www.visitbusan.net/uploadImgs/files/cntnts/20200819142910319_ttiel","https://www.visitbusan.net/uploadImgs/files/cntnts/20200819142910319_thumbL","직접 만든 면을 사용하는 중국식 면 요리 전문점으로, 깔끔하게 정리된 매장이 인상적이다. 진한 맛을 내면서도 자극적이지 않다는 탄탄면과 우육탕이 대표메뉴이며, 사이드메뉴인 가지만두도 무척 인기있다."
"146","금수복국","해운대구","35.16243","129.1645","금수복국","금수복국","-","해운대구 중동1로 43번길23","-","051-742-3600","-","24시간","은복지리탕, 활복지리탕","https://www.visitbusan.net/uploadImgs/files/cntnts/20200819172845727_ttiel","https://www.visitbusan.net/uploadImgs/files/cntnts/20200819172845727_thumbL","부산에서 가장 유명한 식당 중 한 곳인 46년 전통의 복어요리전문점으로, 우수한 식재를 현지에서 엄선하여 공수하고, 모든 찬류 및 장류와 김치, 양념 등을 직접 만들어 사용한다.특히 외국인 관광객들이 많이 찾는 곳으로도 유명하다."
"150","개미집","해운대구","35.170353","129.16971","개미집","개미집","-","부산 해운대구 대천로 38","-","051-744-6446","http://www.gaemizib.kr/","am 11:00 ~ pm 22:00","낙지볶음, 곱창전골","https://www.visitbusan.net/uploadImgs/files/cntnts/20200818111847170_ttiel","https://www.visitbusan.net/uploadImgs/files/cntnts/20200818111847170_thumbL","부산의 대표적인 낙지요리전문점인 개미집의 분점으로, 본점에 뒤쳐지지 않는 맛을 선보이고 있다. 본점과 같이 낙지볶음, 낙지새우볶음, 낙지곱창볶음 등의 요리들이 모두 인기 있으 며, 불고기낙지버섯전골과 곱창전골을 찾는 손님도 많다."
"152","다온","해운대구","35.158123","129.14853","다온","다온","-","부산 해운대구 해운대해변로 154","-","051-959-0119","-","11:30a.m. ~ 22:00p.m.","다온상, 송아리","https://www.visitbusan.net/uploadImgs/files/cntnts/20191219100305084_ttiel","https://www.visitbusan.net/uploadImgs/files/cntnts/20191219100305084_thumbL","한옥의 전통적인 모티브를 활용한 인테리어가 인상적인 한정식전문점으로, 토속적인 소품 으로 장식된 별실이 마련되어 있어 격식 있는 모임의 장소로도 많이 찾는 곳. 한약재와 제철 음식 재료를 활용해서 만든 한식 요리를 곱게 담아 코스로 내는 한정식이 인기"
"153","기장곰장어","기장군","35.185326","129.21143","기장곰장어","기장곰장어","-","기장군 기장읍 기장해안로 70","-","051-721-2934","https://busanhagfish.modoo.at/","10:00a.m. ~ 22:00p.m.","곰장어짚불구이, 곰장어된장국","https://www.visitbusan.net/uploadImgs/files/cntnts/20191219100912762_ttiel","https://www.visitbusan.net/uploadImgs/files/cntnts/20191219100912762_thumbL","가장 유명한 곰장어전문식당 중 하나로 TV프로그램에도 자주 소개되는 곳이다. 1976년에 개업하여 4대째 운영해오고 있는 이 곳은 일본과 중국에도 많이 소개되어 있으며, 소나무잎의 향이 강한 짚불구이가 유명하다."
"154","동백섬횟집","해운대구","35.160427","129.15468","동백섬횟집","동백섬횟집","-","부산 해운대구 해운대해변로 209번길나길 17","-","051-741-3888","-","11:30a.m. ~ 22:30p.m.","점심한정메뉴, 회(1인)","https://www.visitbusan.net/uploadImgs/files/cntnts/20200818125906889_ttiel","https://www.visitbusan.net/uploadImgs/files/cntnts/20200818125906889_thumbL","해운대 그랜드호텔 인근에 있는 자연산 활어회 전문 횟집으로, 생선회를 주문하면 문어숙 회, 멍게, 전복, 가자미구이, 새우튀김 등의 다양한 밑반찬과 식사 후 매운탕 등의 요리가 함께 제공된다. 대부분의 생선은 시가에 따라서 가격이 변동된다."
"155","투히엔","사상구","35.17233","128.98222","투히엔","투히엔","-","부산 사상구 사상로309번길 19","-","051-301-8623","-","am 11:00 ~ pm 22:00","쌀국수, 반 쎄오","https://www.visitbusan.net/uploadImgs/files/cntnts/20200819144625757_ttiel","https://www.visitbusan.net/uploadImgs/files/cntnts/20200819144625757_thumbL","베트남 현지인인 오너쉐프가 운영하는 베트남전통요리전문점인 이 곳은 점원들도 모두 베트남인으로 베트남 현지의 음식맛과 분위기를 즐길 수 있는 식당이다.쌀국수와 반쎄오가 특히 인기 있는 메뉴이며, 고마운 가격으로도 유명하다."
"158","파니니브런치","사상구","35.12544","128.96982","파니니브런치","파니니브런치","-","사상구 엄궁남로15(엄궁동)","-","010-5756-2292","-","10:00a.m. ~ 22:00p.m.","아메리칸브런치, 불고기파니니","https://www.visitbusan.net/uploadImgs/files/cntnts/20191219102246496_ttiel","https://www.visitbusan.net/uploadImgs/files/cntnts/20191219102246496_thumbL","주택을 개조하여 만든 예쁜 외관의 브런치카페로, 휴일과 잘 어울릴 것 같은 화사한 실내와창 너머에 보이는 화단이 인상적이다. 아메리칸 브런치, 불고기파니니, 맥앤치즈파니니, 부리또 브런치, 리코타샐러드 등이 인기 있는 메뉴이다."
"160","하동재첩국","사상구","35.19327","128.98575","하동재첩국","하동재첩국","-","사상구 낙동대로1518번길33","-","051-301-7200","-","am 06:00 ~ pm 23:30","재첩국, 재첩찜","https://www.visitbusan.net/uploadImgs/files/cntnts/20191219102848318_ttiel","https://www.visitbusan.net/uploadImgs/files/cntnts/20191219102848318_thumbL","재첩국전문식당이 모여 있는 이 지역에서도 인기있는 재첩국전문점으로, 섬진강의 국산 재첩만을 사용하여, 소금물에 담가 해감을 하고, 수 차례 깨끗이 씻은 다음 끓인 국물은 간과 위의 건강에 도움이 된다고 한다. 이 곳은 재첩을 회와 찜으로 새롭게 연구하여 재첩 요리를 정착시킨 곳이기도 하다."
"163","문스시","해운대구","35.17031","129.16615","문스시","문스시","-","부산 해운대구 좌동순환로 43","-","051-744-3316","-","am 11:30 ~ pm 22:00","오마카세 문 스시, 오마카세 스 스시","https://www.visitbusan.net/uploadImgs/files/cntnts/20200818130348030_ttiel","https://www.visitbusan.net/uploadImgs/files/cntnts/20200818130348030_thumbL","TV프로그램을 통해 소개된 유명 쉐프가 운영하는 일식전문점으로, 기대를 충족하는 수준 있는 요리들과 깔끔하고 세련된 인테리어가 특징이다. 쉐프가 추천하는 음식으로 구성되는 오마카세 스시 코스가 특히 유명하다."
"164","할매재첩국","사상구","35.19339","128.98608","할매재첩국","할매재첩국","-","사상구 낙동대로 1530번길20-15","-","051-301-7069","-","07:00a.m. ~ 21:00p.m.","재첩회덮밥, 재첩국","https://www.visitbusan.net/uploadImgs/files/cntnts/20200819172441765_ttiel","https://www.visitbusan.net/uploadImgs/files/cntnts/20200819172441765_thumbL","낙동강변 재첩요리 먹거리 타운에서 28년간 운영하고 있는 재첩국전문점으로, 근방에서 가장 유명한 식당 중 한 곳이다. 비빔그릇에 함께 나온 된장과 재첩을 넣고 비빔밥을 만들어, 재첩국과 함께 먹는 방법이 인기 있다."
"166","예이제","해운대구","35.16123","129.16664","예이제","예이제","-","부산 해운대구 해운대해변로 298번길 29","-","051-731-1100","-","12:00p.m. ~ 22:00p.m.","런치, 중코스","https://www.visitbusan.net/uploadImgs/files/cntnts/20200818133818412_ttiel","https://www.visitbusan.net/uploadImgs/files/cntnts/20200818133818412_thumbL","해운대 해변인근에 위치한 한정식전문점으로, 가족모임이나 손님 대접 등으로 많이 찾는 곳이다. 주인이 직접 고른 제철 식재료와 지인이 운영하는 농장에서 키운 채소를 사용하는이 곳은 먹는 것이 고민스러울 정도로 예쁜 음식이 특징이다."
"167","합천일류돼지국밥","사상구","35.162277","128.98013","합천일류돼지국밥","합천일류돼지국밥","-","부산 사상구 광장로 34","-","051-317-2478","-","24hours","고기국밥, 수육백반","https://www.visitbusan.net/uploadImgs/files/cntnts/20191219104246429_ttiel","https://www.visitbusan.net/uploadImgs/files/cntnts/20191219104246429_thumbL","맛있는 식당들이 많기로 유명한 사상시외버스터미널 근처에서도 특히 유명한 돼지국밥전문 점으로, 24시간 운영되는 이 곳은, 관광객들이 많이 찾는 곳이기도 하다. 마늘다대기가 수북 하게 올려져있는 것이 특징이며, 국밥만큼이나 돼지고기수육도 유명하다."
"169","원조석대추어탕","해운대구","35.2195","129.12512","원조석대추어탕","원조석대추어탕","-","부산 해운대구 반송로 571번길 5","-","051-523-2867","-","08:30a.m. ~ 21:00p.m.","추어탕, 가오리찜","https://www.visitbusan.net/uploadImgs/files/cntnts/20191219104936271_ttiel","https://www.visitbusan.net/uploadImgs/files/cntnts/20191219104936271_thumbL","입구를 들어서면 가득 쌓인 장작과 아궁이에 올려 진 커다란 무쇠솥이 눈에 들어온다.유명한 추어탕전문점인 이 곳의 추어탕은, 강한 화력으로 오래 끓여 부드럽고 풍부한 맛이 특징으로, 논고동무침과 가오리찜도 인기 있다."
"176","일광대복집","기장군","35.267014","129.23355","일광대복집","일광대복집","-","기장군 일광면 이화로3","-","051-721-1561","http://ilkwangdb.fordining.kr/","am 07:00 ~ pm 21:30","복국, 코스","https://www.visitbusan.net/uploadImgs/files/cntnts/20200819144704147_ttiel","https://www.visitbusan.net/uploadImgs/files/cntnts/20200819144704147_thumbL","일광의 대표적인 복어요리 전문식당으로, 넓은 공간의 식당이지만, 항상 사람들이 가득차 있다. 1층은 복국전용으로, 2층은 복어 코스요리전용으로 운영하고 있다. 다양한 반찬이 함께 나온다."
"181","흙시루","기장군","35.25688","129.21648","흙시루","흙시루","-","기장군 기장읍 차성로451번길 28","-","051-722-1377","-","11:00a.m. ~ 22:00p.m.","흙시루정식, 단호박오리구이","https://www.visitbusan.net/uploadImgs/files/cntnts/20191219113804214_ttiel","https://www.visitbusan.net/uploadImgs/files/cntnts/20191219113804214_thumbL","한국전통가옥과 주인이 수집한 것으로 알려진 골동품들, 그리고 작은 화원이 특색 있는이 곳은, 손님을 대접하기 좋은 곳으로 유명한 식당이다. 정말 많은 반찬들이 차려진 한정식이 대표메뉴."
"190","원조할매복국","해운대구","35.160915","129.17152","원조할매복국","원조할매복국","-","부산 해운대구 달맞이길 62번길 28","-","051-747-7625","-","06:00a.m. ~ 23:00p.m.","복지리, 흰밀복수육","https://www.visitbusan.net/uploadImgs/files/cntnts/20191219134018171_ttiel","https://www.visitbusan.net/uploadImgs/files/cntnts/20191219134018171_thumbL","‘복국촌’으로 알려진 미포 지역의 대표적인 복요리 전문점으로, 부산 향토 음식점 31곳 중하나이다. 복어를 사용한 맑은 탕인 복지리가 대표메뉴이며, 복어죽과 수육, 복불고기와 복어찜 등의 요리도 맛볼 수 있다."
"192","국수와보쌈","남구","35.136536","129.09033","국수와보쌈","국수와보쌈","-","남구 수영로219번길 29","-","070-4102-8253","-","am 11:30 ~ pm 22:00","국보1호(국수+보쌈), 보쌈","https://www.visitbusan.net/uploadImgs/files/cntnts/20191219135127399_ttiel","https://www.visitbusan.net/uploadImgs/files/cntnts/20191219135127399_thumbL","남해멸치를 사용해 육수를 만들고 당일 도축된 돼지고기를 사용한 신선한 수육이 특징이다. 분위기도 심플하고, 메뉴도 심플하다. 국수와 보쌈을 함께 먹을 수 있는 메뉴가 인기 있다."
"193","젠스시","해운대구","35.170826","129.1715","젠스시","젠스시","-","해운대구 대천로42번길28-5","-","051-746-7456","-","12:00p.m. ~ 22:00p.m.","스시오마카세(점심특선), 젠스시초밥(10pcs)","https://www.visitbusan.net/uploadImgs/files/cntnts/20191219135236542_ttiel","https://www.visitbusan.net/uploadImgs/files/cntnts/20191219135236542_thumbL","해운대의 유명 일식전문점으로, 명인 인증서를 받은 오너 쉐프가 운영하며, 주방 분위기가 엄격하고, 위생에 무척 신경을 쓰는 것으로도 유명하다. 열 가지의 초밥과 함께 미소시루, 달걀 찜, 튀김 등으로 구성 된 코스요리가 대표메뉴"
"201","평안도족발","해운대구","35.161945","129.16637","평안도족발","평안도족발","-","부산 해운대구 달맞이길 14","-","051-741-6568","-","12:00p.m. ~ 24:00a.m.","족발, 마늘족발","https://www.visitbusan.net/uploadImgs/files/cntnts/20191219141936064_ttiel","https://www.visitbusan.net/uploadImgs/files/cntnts/20191219141936064_thumbL","30년 넘게 한자리에서 운영해온 전통 있는 족발전문점으로, 이 지역 사람들에게 오래 사랑 받아온 곳이다. 오래된 식당답게 족발 특유의 냄새가 없는 깔끔하고 균형 잡힌 족발의 맛이 특징이며, 냉채족발과 마늘족발 등의 메뉴도 인기 있다."
"203","한우숯불양곱창","해운대구","35.165897","129.17079","한우숯불양곱창","한우숯불양곱창","-","부산 해운대구 해운대해변로 385","-","051-741-8969","-","16:00p.m. ~ 22:00p.m.","특양(200g), 전골","https://www.visitbusan.net/uploadImgs/files/cntnts/20200819165333332_ttiel","https://www.visitbusan.net/uploadImgs/files/cntnts/20200819165333332_thumbL","해운대 중동역 인근의 양곱창 전문점인 이 곳은 특히 소의 첫 번째 위인 특양 양념구이가 유명하다. 주문과 동시에 특제양념을 발라, 점원이 구워주는 이 곳의 특양 구이는 무척 부드 러우면서도 살짝 탄력 있는 식감이 특징이다."
"204","쌍둥이돼지국밥","남구","35.131783","129.09239","쌍둥이돼지국밥","쌍둥이돼지국밥","-","남구 유엔평화로 35-1","-","051-628-7020","-","am 09:00 ~ am 24:00","돼지국밥, 수육백반","https://www.visitbusan.net/uploadImgs/files/cntnts/20191219143010570_ttiel","https://www.visitbusan.net/uploadImgs/files/cntnts/20191219143010570_thumbL","식사시간에는 길게 줄을 선 모습을 볼 수 있는 유명한 식당으로, 부산의 수 많은 돼지국밥 전문점 중에서도 손에 꼽히는 식당 중 한 곳이다. 아주 부드러운 돼지고기수육이 유명하다."
"206","해운대가야밀면","해운대구","35.16885","129.16634","해운대가야밀면","해운대가야밀면","-","부산 해운대구 좌동순환로 27","-","051-747-9404","-","09:00a.m. ~ 21:00p.m.","밀면, 비빔밀면","https://www.visitbusan.net/uploadImgs/files/cntnts/20200818140934588_ttiel","https://www.visitbusan.net/uploadImgs/files/cntnts/20200818140934588_thumbL","해운대 중동역 인근의 밀면 전문점으로, 식사시간에는 긴 줄이 만들어진다. 소양지, 사태, 닭발 등의 재료와 각종 한약재 등을 사용해 60시간을 끓인 후 1년 이상 숙성하여 육수를 만들어 낸다고 한다."
"207","해야","해운대구","35.161816","129.16391","해야","해야","-","부산 해운대구 중동1로 45","-","051-746-7443","-","11:30a.m. ~ 22:00p.m.","해코스, 해야코스","https://www.visitbusan.net/uploadImgs/files/cntnts/20191219143726173_ttiel","https://www.visitbusan.net/uploadImgs/files/cntnts/20191219143726173_thumbL","해운대 해수욕장 인근의 일식 전문점으로, 상대적으로 저렴한 가격에 만날 수 있는 일식 코스요리는 실속 있는 요리 구성으로 인기가 높다. 일식 전문인만큼 특히 생선회와 스시가 맛있기로도 유명하다."
"229","마가만두","동구","35.114517","129.03854","마가만두","마가만두","-","동구 대영로243번길56","-","051-468-4059","-","am 11:00 ~ pm 21:00","군만두, 찐만두","https://www.visitbusan.net/uploadImgs/files/cntnts/20191220093130336_ttiel","https://www.visitbusan.net/uploadImgs/files/cntnts/20191220093130336_thumbL","부산차이나타운의 양대 만두전문점 중 하나인 유명한 식당. 이 곳의 만두는 만두피가 쫄깃 하고, 육즙이 풍부한 것으로 유명한데, 바싹하고 촉촉한 군만두와 육즙이 더욱 많은 물만두, 생강향이 매력적인 찐만두가 모두 다른 매력을 가지고 있어 항상 메뉴선택이 어렵다."
"230","본전돼지국밥","동구","35.11661","129.0414","본전돼지국밥","본전돼지국밥","-","동구 중앙대로214번길 3-8","-","051-441-2946","-","08:30a.m. ~ 21:30p.m.","돼지국밥/순대국밥/내장국밥 , 수육백반","https://www.visitbusan.net/uploadImgs/files/cntnts/20191220093930480_ttiel","https://www.visitbusan.net/uploadImgs/files/cntnts/20191220093930480_thumbL","부산의 수많은 돼지국밥식당 중에서도 손꼽히는 식당 중 한 곳으로, 부산역 인근에 위치하고 있어, 부산을 찾는 관광객들이 특히 많이 찾는 식당이기도 하다. 깊고 깔끔한 국물맛으로 유명하다."
"231","브라운핸즈백제","동구","35.116352","129.03912","브라운핸즈 백제","브라운핸즈 백제","-","동구 중앙대로 209번길 16","-","051-464-0332","-","10:00a.m. ~ 22:00p.m.","에스프레소, 아메리카노","https://www.visitbusan.net/uploadImgs/files/cntnts/20191220094713384_ttiel","https://www.visitbusan.net/uploadImgs/files/cntnts/20191220094713384_thumbL","등록문화제로 지정이 되어 있는 부산최초근대병원건물을 개조하여 만든 디자인카페로 오래된 건물의 느낌을 살린 인테리어를 보는 것만으로도 이 곳을 찾을 가치가 있다. 세월의 흔적을 느끼며, 즐기는 커피의 맛은 무척 각별하다."
"233","금문","동래구","35.221874","129.0818","금문","금문","-","부산 동래구 온천장로119번길 57","-","051-555-4987","-","am 11:30 ~ pm 21:30","코스요리(1인), 금문자장","https://www.visitbusan.net/uploadImgs/files/cntnts/20191220100137362_ttiel","https://www.visitbusan.net/uploadImgs/files/cntnts/20191220100137362_thumbL","화교 2세인 오너쉐프가 운영하는 30년 전통의 중국식당으로, 고급스러운 실내와 넓은 규모의 연회석을 가지고 있어 모임장소로 인기 있는 곳이다. 이 곳은 특히 코스요리가 유명하며, 수준 높은 중국요리들을 비교적 저렴한 가격으로 제공하고 있다."
"234","석화한정식","동구","35.13881","129.06189","석화한정식","석화한정식","-","부산 동구 조방로 21","-","051-632-5005","-","am 11:30 ~ pm 22:00","석화어머니 한정식, 석화고향 한정식","https://www.visitbusan.net/uploadImgs/files/cntnts/20200819151649964_ttiel","https://www.visitbusan.net/uploadImgs/files/cntnts/20200819151649964_thumbL","차려지는 음식 하나하나가 먹기 아까울 정도로 섬세하게 담겨져 나온다. 격식있는 모임의 장소로도 유명한 고급한정식전문점으로, 버섯탕수와 전복초가 나오는 고향한정식과 관자숙 회와 갈비찜 장어구이가 나오는 어머니한정식이 대표메뉴."
"235","내당","동래구","35.219814","129.08208","내당","내당","-","동래구 금강공원로 20번길 23","-","051-550-2335","https://www.hotelnongshim.com/kr/index.php?pCode=naedang","pm 12:00 ~ pm 21:30","주방장 특선코스, 매화코스","https://www.visitbusan.net/uploadImgs/files/cntnts/20191220102628704_ttiel","https://www.visitbusan.net/uploadImgs/files/cntnts/20191220102628704_thumbL","온천장에 위치한 농심호텔 한정식전문점으로 정원과 연못이 있는 전통가옥의 형식으로 지어진 고급스러운 한식당이다. 음식 역시 무척이나 고급스러우며, 보증된 맛을 가지고 있는이 곳은 주로 격식 있는 연회나 모임 등의 장소로 많이 찾는다."
"236","논두렁추어탕","동래구","35.206493","129.07968","논두렁추어탕","논두렁추어탕","-","부산 동래구 명륜로139번길 42-5","-","051-553-5769","-","10:00a.m. ~ 22:00p.m.","추어탕, 논고동무침","https://www.visitbusan.net/uploadImgs/files/cntnts/20191220103144792_ttiel","https://www.visitbusan.net/uploadImgs/files/cntnts/20191220103144792_thumbL","저렴한 가격으로 좋은 음식을 제공하기 위해 모든 음식을 주인이 직접 만들고 있는 추어탕 전문점으로, 손님이 미안할 정도의 가격으로 음식을 판매하고 있다. 이 곳의 대표메뉴 추어 탕은 다른 곳보다 조금 맑은 국물이 특징으로 담백한 맛을 낸다."
"238","동래별장","동래구","35.220375","129.0795","동래별장","동래별장","-","부산 동래구 금강로123번길 12","-","051-552-0157","-","12:00p.m. ~ 21:00p.m.","점심정식, 저녁정식","https://www.visitbusan.net/uploadImgs/files/cntnts/20191220104322822_ttiel","https://www.visitbusan.net/uploadImgs/files/cntnts/20191220104322822_thumbL","3,000여 평의 넓은 정원으로 인해 공원 같은 느낌을 주는 이 곳은 부산에 남아 있는 대표적인 근대 일본식주택이기도 하며, 전통궁중요리를 만드는 식당이 다. 한국을 방문한 국빈급 인사가 찾기도 할 만큼 유명한 곳으로, 칠절판, 궁중 신선로, 궁중 떡갈비 등의 특별한 메뉴를 즐길 수 있는 곳이다."
"239","봉식당","동래구","35.221752","129.08357","봉식당","봉식당","-","부산 동래구 온천장로119번길 26","-","051-556-9911","-","12:00p.m. ~ 22:00p.m.","A코스, B코스","https://www.visitbusan.net/uploadImgs/files/cntnts/20191220104915203_ttiel","https://www.visitbusan.net/uploadImgs/files/cntnts/20191220104915203_thumbL","한식당을 운영했던 어머니와 프렌치 쉐프인 아들이 함께 음식을 만들고 있는 유니크한 식당 으로, 한식과 양식이 결합된 퓨전코스요리를 만들고 있다. 이 곳의 음식은 간단하게 ‘예쁘고, 맛있다’ 라는 두마디로 표현이 가능하다."
"240","산들바람","동래구","35.19958","129.10486","산들바람","산들바람","-","부산 동래구 안락로 71","-","051-524-3425","-","11:00a.m. ~ 22:00p.m.","해물찜 / 꽃게찜","https://www.visitbusan.net/uploadImgs/files/cntnts/20191220110638852_ttiel","https://www.visitbusan.net/uploadImgs/files/cntnts/20191220110638852_thumbL","20년째 운영중인 전통향토음식 전문점으로 찜 요리를 주문하면 해물파전, 찜, 낙지 야채 칼국수가 코스처럼 나오는데 맛과 양이 모두 만족스럽다. 밥은 솥밥으로 제공되며, 보쌈과 해물찜이 특히 인기 있다."
"242","신발원","동구","35.114815","129.03873","신발원","신발원","-","동구 대영로243번길62(초량동)","-","051-467-0177","-","am 11:00 ~ pm 20:00","고기만두, 군만두","https://www.visitbusan.net/uploadImgs/files/cntnts/20191220111654951_ttiel","https://www.visitbusan.net/uploadImgs/files/cntnts/20191220111654951_thumbL","부산차이나타운의 양대 만두전문점 중 하나인 유명한 식당으로, 시간과 관계없이 길게 줄이 서있는 곳이다. 중국빵과 만두를 전문으로 하는 이 곳의 만두는 두께감이 느껴지는 푹신한 만두피와 풍부한 육즙의 고기만두가 대표음식이다."
"243","완차이","동구","35.11345","129.03845","완차이","완차이","-","동구 중앙대로179번길 3","-","051-465-8868","-","am 11:30 ~ pm 22:00","북경오리, 풍미가지","https://www.visitbusan.net/uploadImgs/files/cntnts/20191220112300229_ttiel","https://www.visitbusan.net/uploadImgs/files/cntnts/20191220112300229_thumbL","부산차이나타운의 중국요리 전문점 중 하나로, 대만인 부부가 운영하는 식당이다. 유명한 중식당의 거리인 이 곳에서도 특색 있는 요리로 유명하며, 북경오리를 전문으로 하는 곳이기도 하다. 이 곳의 화교들이 자주 찾는 식당."
"244","조방제일한우","동구","35.140778","129.06201","조방제일한우","조방제일한우","-","부산 동구 조방로42번길 12","-","051-637-2000","-","am 11:30 ~ pm 22:00","모듬숯불구이, 한우숯불불고기","https://www.visitbusan.net/uploadImgs/files/cntnts/20191220113227180_ttiel","https://www.visitbusan.net/uploadImgs/files/cntnts/20191220113227180_thumbL","한우 모듬숯불구이와 숯불불고기가 유명한 한우구이 전문점. 한우를 포장하여 판매하기도 하며, 오픈 되어 있는 정육코너의 직원들이 고기를 썰고 있는 모습은 한층 더 고기품질에 대한 믿음을 준다. 어떤 부위의 고기든 추천 할만하다."
"245","카페초량 1941","동구","35.11969","129.02942","카페초량 1941","카페초량 1941","-","동구 망양로 533-5","-","051-462-7774","http://www.choryang.com","10:00a.m. ~ 19:00p.m.","바닐라우유, 생강우유","https://www.visitbusan.net/uploadImgs/files/cntnts/20191220113754339_ttiel","https://www.visitbusan.net/uploadImgs/files/cntnts/20191220113754339_thumbL","동구의 관광명소인 ‘이바구길’에 위치한 이 카페는 1941년 당시 부산에 살던 일본인에 의해 지어진 집을 개조한 곳으로, 주변 환경을 포함해 외관도 실내도 모두 1941년을 연상시 키는 레트로한 감성을 가지고 있다. 메인메뉴는 자체개발한 예쁜 병에 담겨있는 다양한 ‘우 유’이다."
"246","할매국밥","동구","35.141026","129.05615","할매국밥","할매국밥","-","동구 중앙대로533번길 4","-","051-646-6295","-","10:00a.m. ~ 20:00p.m.","따로국밥, 수육백반","https://www.visitbusan.net/uploadImgs/files/cntnts/20191220114303891_ttiel","https://www.visitbusan.net/uploadImgs/files/cntnts/20191220114303891_thumbL","60년 전통의 돼지국밥전문점으로 식사시간에는 30분 이상을 기다려야 하는 유명한 식당이 다. 대부분의 돼지국밥들과는 다른 맑은 국물이 특징이며, 대충 썬 것 같은 돼지수육은 예상 외로 부드러운 맛이다. 돼지국물과 고기가 따로 나오는 수육백반이 특히 인기 있다."
"247","소문난동래파전","동래구","35.218555","129.07838","소문난동래파전","소문난동래파전","-","부산 동래구 금강공원로 55","-","051-553-5464","https://blog.naver.com/PostList.nhn?blogId=gudgml1","10:00a.m. ~ 22:00p.m.","동래파전, 빈대떡","https://www.visitbusan.net/uploadImgs/files/cntnts/20191220132506435_ttiel","https://www.visitbusan.net/uploadImgs/files/cntnts/20191220132506435_thumbL","‘백종원의 3대천왕’이라는 유명 요리버라이어티쇼에 출연했던 곳으로, 금강공원 앞에 위치 하고 있는 유명한 파전전문점이다. 오징어, 새우, 홍합 등 다양한 해물과 돼지고기 위에 계란이 올라가 있는 파전은 초고추장에 찍어 먹는 것이 가장 맛있다고 한다."
"248","옹기마을손칼국수","동래구","35.199234","129.0985","옹기마을손칼국수","옹기마을손칼국수","-","동래구 충렬대로359번길 29","-","051-524-5595","-","am 10:00 ~ pm 22:00","보리밥, 팥칼국수","https://www.visitbusan.net/uploadImgs/files/cntnts/20191220133017336_ttiel","https://www.visitbusan.net/uploadImgs/files/cntnts/20191220133017336_thumbL","이 지역 사람들에게 꾸준히 사랑받고 있는 소박한 식당으로, 보리밥과 칼국수 전문식당이다. 다양한 나물과 양념 그리고, 된장찌개를 넣어 비벼먹는 보리밥과 함께 쉽게 보기 힘든 메뉴인 팥 칼국수가 인기메뉴이다."
"250","정림","동래구","35.20304","129.08517","정림","정림","-","부산 동래구 충렬대로237번길 31-3","-","051-552-1211","-","pm 12:00 ~ pm 21:00","정림정찬, 행복밥상","https://www.visitbusan.net/uploadImgs/files/cntnts/20200819153512726_ttiel","https://www.visitbusan.net/uploadImgs/files/cntnts/20200819153512726_thumbL","반찬으로 쓰이는 모든 장아찌는 산야초로 만든 효소로 3년 이상 숙성시켜 만들고, 토속적인 인테리어가 차려지는 음식과 무척 잘 어울린다. 이 곳은 약선요리를 전문으로 하는 한정식 식당으로, 섬세하게 담겨 나오는 음식들을 먹다보면 건강해지는 느낌이 든다."
"251","원조본가산곰장어집","동래구","35.202164","129.08574","원조본가산곰장어집","원조본가산곰장어집","-","부산 동래구 명륜로98번길 42","-","051-553-8377","-","am 11:30 ~ am 00:30","소금구이, 양념구이","https://www.visitbusan.net/uploadImgs/files/cntnts/20200819092106369_ttiel","https://www.visitbusan.net/uploadImgs/files/cntnts/20200819092106369_thumbL","동래시장 옆 곰장어골목으로 불리는 이 곳에서 가장 유명한 식당으로, 살아있는 곰장어와 붕장어를 직접 구워먹는 곳이다. 곰장어는 통구이, 양념구이, 소금구이 등으로 즐길 수 있으며, 생 곰장어가 없으면 휴업한다는 문구가 믿음을 준다."
"559","용장어요리 전문점","강서구","35.11817","128.89203","용장어요리 전문점","용장어요리 전문점","-","강서구 낙동남로 682번길94","-","051-941-5031","-","11:30a.m. ~ 21:30p.m.","민물장어덮밥 , 바다장어덮밥","https://www.visitbusan.net/uploadImgs/files/cntnts/20200818102206448_ttiel","https://www.visitbusan.net/uploadImgs/files/cntnts/20200818102206448_thumbL","아주 유명한 장어요리전문 식당으로, 넓은 주차장과 3개동의 식당건물이 있다. 바다장어와 민물장어를 구이와 덮밥으로 판매하고 있으며, 전 좌석이 룸형태로 되어 있어, 여유있는 식사를 즐길 수 있다."
"560","남산팔각정","금정구","35.263256","129.0885","남산팔각정","남산팔각정","-","금정구 금강로 626","-","051-582-8866","-","12:00p.m. ~ 22:00p.m.","오리불고기, 옻오리","https://www.visitbusan.net/uploadImgs/files/cntnts/20200818113108281_ttiel","https://www.visitbusan.net/uploadImgs/files/cntnts/20200818113108281_thumbL","2007년 서울 국제 음식박람회 보건복지부 장관상을 수상한 오리요리 전문점으로, 직접 준비한 좋은 물로 음식을 만든다고 한다. 한정식처럼 푸짐한 상이 차려지는 이 곳은 오리백숙으로 유명하다."
"561","산성집","금정구","35.244198","129.05556","산성집","산성집","-","금정구 산성로 524 (금성동)","-","051-517-5546","-","am 09:00 ~ pm 22:00","흑염소숯불구이, 오리불고기","https://www.visitbusan.net/uploadImgs/files/cntnts/20200818125407099_ttiel","https://www.visitbusan.net/uploadImgs/files/cntnts/20200818125407099_thumbL","부산시 향토음식 지정점인 흑염소 불고기 전문점. 흑염소 식당들이 120여개나 있는 이 지역 에서도 대표적인 식당으로 흑염소 숯불구이, 오리불고기, 토종닭, 산성토산주, 도토리묵 및계절에 따른 산채나물 요리 등 토속적인 음식들이 준비되어 있다."
"563","현대가든","금정구","35.24546","129.05551","현대가든","현대가든","-","금정구 산성로 510(금성동)","-","051-517-6767","-","10:00a.m. ~ 22:00p.m.","흑염소불고기 , 돼지 통삼겹 숯불바베큐","https://www.visitbusan.net/uploadImgs/files/cntnts/20200818131204424_ttiel","https://www.visitbusan.net/uploadImgs/files/cntnts/20200818131204424_thumbL","흑염소불고기를 전문식당이 120여개나 있는 이 곳에서도 특히 유명한 식당. 숯불에 직접 구워주는 흑염소숯불구이와 오리숯불구이가 대표메뉴이며, 다른 곳에서는 보기 힘든 통삼 겹살 숯불 바비큐도 인기 있다."
"567","송화루","동래구","35.20286","129.06548","송화루","송화루","-","부산 동래구 아시아드대로207번길 9","-","051-504-5415","-","am 10:30 ~ pm 21:00","탕수육정식 , 칠리새우정식","https://www.visitbusan.net/uploadImgs/files/cntnts/20200818180055758_ttiel","https://www.visitbusan.net/uploadImgs/files/cntnts/20200818180055758_thumbL","조리기능장인 중식의 대가 조창현쉐프가 운영하는 중식당인 이 곳은, 특이하게 중국요리정 식메뉴를 판매하고 있다. 정식에는 짜장면과 짬뽕이 기본으로 나오며, 공기밥도 서비스로 제공된다. 저렴한 가격에 중국식 코스요리를 먹은 느낌을 준다."
"568","코모도테이블","동래구","35.19228","129.10095","코모도테이블","코모도테이블","-","부산 동래구 온천천로 431번길 12-15","-","010-7533-5478","-","am 10:30 ~ pm 22:00","콥샐러드 , 그릴드아보카도샌드위치","https://www.visitbusan.net/uploadImgs/files/cntnts/20200819153416941_ttiel","https://www.visitbusan.net/uploadImgs/files/cntnts/20200819153416941_thumbL","주말의 여유를 즐기기 좋은 온천천카페거리의 브런치카페로 다양한 브런치메뉴들이 준비 되어 있다. 커다란 통새우와 계란, 아보카도, 올리브 등이 푸짐하게 담겨져 있는 콥샐러드가 인기메뉴로 분위기도 좋고 맛도 좋은 곳이다."
"571","랜드마크9","부산진구","35.15435","129.06453","랜드마크9","랜드마크9","-","부산 부산진구 전포대로199번길 9 랜드마크9","-","010-3560-7760","-","am 11:00 ~ pm 23:00","나이아가라폭포, 오페라하우스","https://www.visitbusan.net/uploadImgs/files/cntnts/20200819095056693_ttiel","https://www.visitbusan.net/uploadImgs/files/cntnts/20200819095056693_thumbL","전포카페거리의 카페 중 가장 큰 규모 자랑하는 이 곳은, 카페와 편집숍, 커피박물관이 함께 있는 복합문화공간이다. 고급스러운 인테리어의 매장에선 다양한 빵을 만드는 모습이 보인 다. 친구와 함께 시간을 보내기 좋은 곳이다."
"577","영변횟집","해운대구","35.1808","129.20293","영변횟집","영변횟집","-","부산 해운대구 송정해변로 30","-","051-703-7590","-","11:00a.m. ~ 21:30p.m.","새꼬시(넙치), 모듬회","https://www.visitbusan.net/uploadImgs/files/cntnts/20200818134302422_ttiel","https://www.visitbusan.net/uploadImgs/files/cntnts/20200818134302422_thumbL","뼈와 함께 먹는 잘게 썬 세꼬시가 특히 유명한 생선회전문점으로, 도다리, 광어, 우럭, 돌돔, 농어 등 다양한 활어를 철에 따라 즐길 수 있다. 특히 가자미나 광어를 이용한 세꼬시가 인기 메뉴로 회를 주문하면 상을 꽉 채우는 반찬과 해산물 등이 함께 제공된다."
"579","가마솥생복집","기장군","35.246918","129.21342","가마솥생복집","가마솥생복집","-","기장군 기장읍 차성로327-2","-","051-722-2995","-","10:00a.m. ~ 22:00p.m.","복지리, 복튀김","https://www.visitbusan.net/uploadImgs/files/cntnts/20200306144718985_ttiel","https://www.visitbusan.net/uploadImgs/files/cntnts/20200306144718985_thumbL","16년째 운영하고 있는 복어요리 전문식당으로 유명인사들이 많이 찾는 식당이기도 하다. 수 많은 복어요리식당 중에서도 손꼽히는 식당으로 국물이 맛있기로 유명하다. 많은 종류의 반찬이 함께 나온다."
"864","로다로지","강서구","35.106216","128.92369","로다로지","로다로지","-","부산 강서구 명지국제12로19번길 20-10","-","051-201-0456","-","am 09:00 ~ pm 21:00","바게트 , 올리브치아바타","https://www.visitbusan.net/uploadImgs/files/cntnts/20200818093804412_ttiel","https://www.visitbusan.net/uploadImgs/files/cntnts/20200818093804412_thumbL","여러 가지의 반죽(르방)을 사용해 오랫동안 발효하여, 씹을수록 고소하고, 소화가 잘되는 것이 특징이다. 한국인이 주식으로 먹을 수 있는 빵을 만드는 것이 목표 이며, 바게트와 올리브치아바타가 특히 인기 있다."
"865","방코","강서구","35.11546","128.92226","방코","방코","-","부산 강서구 낙동남로 991번길 27","-","051-271-2068","-","am 11:30 ~ pm 20:30","풍기 트러플 피자 , 무화과 블루치즈 피자","https://www.visitbusan.net/uploadImgs/files/cntnts/20200818100408773_ttiel","https://www.visitbusan.net/uploadImgs/files/cntnts/20200818100408773_thumbL","특이한 외관의 이 건물은 화덕에 구운 피자와 파스타를 만드는 곳이다. 신선한 재료와 새로운 조리법을 사용하여 풍부하고 담백한 맛을 내는 것이 특징이다. 트러플로 향을 낸 피자와 블루치즈를 사용한 피자가 대표메뉴이다."
"866","복이 있는 202갈삼","강서구","35.106735","128.93083","복이 있는 202갈삼","복이 있는 202갈삼","-","부산 강서구 명지새동네길2번길 46","-","051-291-0317","-","am 11:00 ~ pm 22:00","갈삼구이 , 조개샤브","https://www.visitbusan.net/uploadImgs/files/cntnts/20200818100933671_ttiel","https://www.visitbusan.net/uploadImgs/files/cntnts/20200818100933671_thumbL","해산물인 갈미조개와 삼겹살을 같이 구워먹는 메뉴로 유명하며, 3층에는 직접 운영하는 카페도 있다. 이 지역에 많은 동종식당이 있으나, 이 음식을 개발한 곳이라고 한다.갈삼구이와 조개샤브가 대표메뉴이다."
"867","왕바지식당(가덕도)","강서구","35.015903","128.83472","왕바지식당(가덕도)","왕바지식당(가덕도)","-","부산 강서구 가덕해안로1169번길 105","-","051-971-5477","-","am 10:00 ~ pm 17:30","해물전골 백숙, 해물전골","https://www.visitbusan.net/uploadImgs/files/cntnts/20200818101909006_ttiel","https://www.visitbusan.net/uploadImgs/files/cntnts/20200818101909006_thumbL","풍부한 해산물이 들어가는 해물백숙으로 유명한 이 곳은 한국적인 분위기의 해안경치를 감상하며, 식사하는 특별한 경험을 할 수 있는 식당이다. 주인과 가족들이 직접 잡은 해산 물을 사용한다."
"868","이것이 코다리다","강서구","35.09741","128.92395","이것이 코다리다","이것이 코다리다","-","부산 강서구 명지국제8로 286","-","051-271-2068","-","am 11:00 ~ pm 22:00","시래기 코다리 조림 , 시래기 코다리조림 점심특선","https://www.visitbusan.net/uploadImgs/files/cntnts/20200818104224917_ttiel","https://www.visitbusan.net/uploadImgs/files/cntnts/20200818104224917_thumbL","말린 명태인 코다리조림을 전문으로 하는 곳으로, 배추겉잎과 튀긴 두부가 들어있는 매콤하고 푸짐한 음식을 만든다. 생선뼈가 발라져 있어 편하게 먹을 수 있는 것이 장점이다."
"869","이프리오","강서구","35.145397","128.88576","이프리오","이프리오","-","부산 강서구 범방4로 32","-","051-973-2825","-","am 10:00 ~ pm 22:50","아메리카노, 아이스, 레드플라워","https://www.visitbusan.net/uploadImgs/files/cntnts/20200818105654996_ttiel","https://www.visitbusan.net/uploadImgs/files/cntnts/20200818105654996_thumbL","주위경관과 건물외경은 물론 건축상을 수상한 인테리어가 무척 고급스럽다. 갓 구워낸 베이커리와 엄선된 생두로 직접 로스팅 한 커피가 준비되어 있고, 직접 만든 과일차와 꽃차가 특색있는 곳이다."
"870","초밥 잘하는 오빠","강서구","35.082623","128.8777","초밥 잘하는 오빠","초밥 잘하는 오빠","-","부산 강서구 신호산단2로 69","-","051-832-5858","-","am 11:30 ~ pm 21:00","1번 모듬(12개), 메로구이, 연어머리 구이","https://www.visitbusan.net/uploadImgs/files/cntnts/20200818110707923_ttiel","https://www.visitbusan.net/uploadImgs/files/cntnts/20200818110707923_thumbL","유명한 푸드트럭에서 시작해 매장이 된 곳으 로, 음식가격과 메뉴구성 등을 푸드트럭 때의 방식으로 저렴하게 먹을 수 있도록 운영하고 있으며, 모든 재료와 소스를 직접 만들어서 사용하고 있다."
"871","홍익돈까스(명지)","강서구","35.09721","128.92484","홍익돈까스(명지)","홍익돈까스(명지)","-","부산 강서구 명지국제8로 296","-","051-293-5009","-","am 11:30 ~ pm 21:30","홍익 왕 돈까스, 해물볶음 우동","https://www.visitbusan.net/uploadImgs/files/cntnts/20200819142254397_ttiel","https://www.visitbusan.net/uploadImgs/files/cntnts/20200819142254397_thumbL","유명한 식당인 홍익돈까스의 분점으로, 매장이 무척 청결하게 관리되고 있으며, 점원들도 친절하다. 당일만 사용되는 신선한 재료만 사용하는 이 곳은 돈까스와 해물볶음우동이 대표메뉴이다."
"872","구포촌국수","금정구","35.266575","129.08475","구포촌국수","구포촌국수","-","부산 금정구 금샘로 490","-","051-515-1751","-","am 10:30 ~ pm 19:00","국수","https://www.visitbusan.net/uploadImgs/files/cntnts/20200820091343295_ttiel","https://www.visitbusan.net/uploadImgs/files/cntnts/20200820091343295_thumbL","국수 한 가지만 만들고 있는 정말 오래되고 유명한 식당이다. 30년간 운영하던 할머니에게서 손녀로 이어진 것도 벌써 20년이 다되어간다. 특별 주문한 국수면만 사용하며, 멸치와 무를 넣고 24시간 고아 낸 육수는 풍부한 맛을 낸다. 누구에게든 추천해주고 싶은 맛이다."
"873","배가왕송정점","해운대구","35.172676","129.19751","배가왕송정점","배가왕송정점","-","부산 해운대구 송정구덕포길 70-1","-","051-703-5597","-","am 11:00 ~ pm 20:30","배가왕칼국수, 배가왕김밥","https://www.visitbusan.net/uploadImgs/files/cntnts/20200818131333843_ttiel","https://www.visitbusan.net/uploadImgs/files/cntnts/20200818131333843_thumbL","송정 해안가에 위치한 칼국수전문점으로, 국물이 맛있기로 유명하다. 왕만두가 올려져 나오는 칼국수는 테이블에 미리 세팅되어 있는 들깨와 고춧가루 청양고추 등을 첨가하면 더욱 맛있어진다고 한다. 사이드 메뉴인 김밥도 인기메뉴."
"874","티원","금정구","35.27885","129.08011","티원","티원","-","부산광역시 금정구 범어사로 363","-","051-531-2220","-","am 10:00 ~ pm 23:00","목련차, 향기로운 블렌딩티","https://www.visitbusan.net/uploadImgs/files/cntnts/20200820091304672_ttiel","https://www.visitbusan.net/uploadImgs/files/cntnts/20200820091304672_thumbL","심플하고 아름다운 외관의 이 건물은 다른 카페들과 달리 커피가 아닌 차를 주 메뉴로 하는 곳으로, 직접 블랜딩한 특색있는 차들을 만날 수 있다. 매장에서 버스킹, 미술전시 등이 열리고 있는 문화공간 이기도 하다."
"875","송정젬스톤","해운대구","35.17134","129.1976","송정젬스톤","송정젬스톤","-","부산 해운대구 송정구덕포길 100","-","051-703-4802","-","am 10:00 ~ am 02:00","아메리카노","https://www.visitbusan.net/uploadImgs/files/cntnts/20200819170221702_ttiel","https://www.visitbusan.net/uploadImgs/files/cntnts/20200819170221702_thumbL","송정해안에 위치한 이 멋진 건물은 바다를 즐기기 좋은 카페로, 실내에는 다양한 스타일의 좌석이 준비되어 있어, 취향에 맞는 자리를 고르는 재미가 있다. 빵이 맛있기로도 유명한이 곳은, 특히 밤바다의 색채를 즐기는 곳으로도 유명하다."
"877","얼크니손칼국수(기장본점)","기장군","35.255756","129.21614","얼크니손칼국수(기장본점)","얼크니손칼국수(기장본점)","-","부산 기장군 기장읍 차성로 417번길 18","-","051-721-3487","-","am 11:30 ~ pm 21:30","얼크니손칼국수, 만두","https://www.visitbusan.net/uploadImgs/files/cntnts/20200819144753937_ttiel","https://www.visitbusan.net/uploadImgs/files/cntnts/20200819144753937_thumbL","간단히 준비된 샤브샤브를 먹은 후 직접 면을 넣고 조리해 먹는 칼국수 가격에 비해 푸짐한 재료들이 특징이다. 먼저 샤브샤브를 먹고 그 국물에 칼국수를 만들어 먹고 나면, 점원이 볶음밥을 만들어 준다."
"878","일광바다","기장군","35.260983","129.23349","일광바다","일광바다","-","부산 기장군 일광면 기장해안로 1312","-","051-724-7188","-","am 11:00 ~ pm 23:00","멸치쌈밥, 도다리쑥국","https://www.visitbusan.net/uploadImgs/files/cntnts/20200819144841303_ttiel","https://www.visitbusan.net/uploadImgs/files/cntnts/20200819144841303_thumbL","일본과 제주도 부산 등의 여러 호텔에서 근무했던 베테랑 오너쉐프가 운영하고 있는 곳으 로, 생선회와 함께 한국식 해산물요리들을 즐길 수 있다. 한식메뉴인 멸치쌈밥과 도다리쑥 국이 인기 있다."
"879","정약방","기장군","35.253445","129.19466","정약방","정약방","-","부산 기장군 기장읍 반송로 1392","-","051-723-6767","-","pm 12:00 ~ pm 21:30","물국수, 만두","https://www.visitbusan.net/uploadImgs/files/cntnts/20200820091623290_ttiel","https://www.visitbusan.net/uploadImgs/files/cntnts/20200820091623290_thumbL","직접 준비한 쌀과 직접 만든 면을 사용하는 식당으로 모든 음식은 주문과 동시에 즉석으로 만들어진다. 건강한 음식을 추구하는 이 곳은 국수와 만두가 인기 있는 메뉴이다."
"880","최선장","기장군","35.18449","129.2127","최선장","최선장","-","부산 기장군 기장읍 공수해안길 27-1","-","051-722-6622","-","am 10:00 ~ pm 21:00","전복죽, 최선장(생선회,해산물)","https://www.visitbusan.net/uploadImgs/files/cntnts/20200819145032680_ttiel","https://www.visitbusan.net/uploadImgs/files/cntnts/20200819145032680_thumbL","전복요리 전문점으로, 이 지역 사람들만 안다는 숨겨진 식당이다. 주인인 최선장의 배로 조업해온 신선한 재료들로 요리를 만든다. 전복죽과 직접 조업해온 생선회와 해산물로 구성된 최선장 이라는 메뉴가 인기있다."
"881","카페 베이스","기장군","35.215145","129.22401","카페 베이스","카페 베이스","-","부산 기장군 기장읍 연화1길 73","-","051-721-7474","-","am 11:00 ~ pm 22:00","아메리카노, 마테티한라봉에이드","https://www.visitbusan.net/uploadImgs/files/cntnts/20200819145126075_ttiel","https://www.visitbusan.net/uploadImgs/files/cntnts/20200819145126075_thumbL","아름다운 해안경관과 네츄럴한 인테리어가 잘어울린다. 베이킹과 음료들도 높은 수준의 맛이지만, 전망 좋은 카페로 유명한 이 곳에서 무엇보다 좋은 것은 분위기다. 오후 1시에는 갓 구워진 빵이 준비된다."
"883","카페일광","기장군","35.263504","129.23412","카페일광","카페일광","-","부산 기장군 일광면 삼성3길 19","-","051-722-1030","-","am 10:00 ~ pm 22:00","일광라떼, 베트남커피","https://www.visitbusan.net/uploadImgs/files/cntnts/20200818142130124_ttiel","https://www.visitbusan.net/uploadImgs/files/cntnts/20200818142130124_thumbL","일광해수욕장 해안에 위치한 소박한 느낌의 루프탑카페 비치감성 가득한 이 곳만의 시그니처 커피들이 무척 특색 있으며, 준비되어 있으며, 디저트메뉴와 맥주도 즐길 수 있다. 드라마를 촬영했던 곳으로도 유명하다."
"884","탐복","기장군","35.282787","129.25757","탐복","탐복","-","부산 기장군 일광면 문오성길 31","-","051-727-4213","-","am 11:30 ~ pm 20:00","탐복죽, 탐복밥","https://www.visitbusan.net/uploadImgs/files/cntnts/20200820091520302_ttiel","https://www.visitbusan.net/uploadImgs/files/cntnts/20200820091520302_thumbL","가정집을 개조하여 만든 전복전문식당으로, 세심하게 플레이팅된 고급스러운 느낌의 전복 요리가 특징이다. 식사시간에는 긴 웨이팅 시간을 감수해야 하지만, 꼭 먹어볼 가치가 있다. 전복죽과 전복밥이 대표메뉴"
"885","해녀할매집","기장군","35.218884","129.22684","해녀할매집","-","해녀할매집","부산 기장군 기장읍 연화2길 30-1","-","051-722-5300","-","am 09:00 ~ pm 20:00","전복죽, 전복철판구이","https://www.visitbusan.net/uploadImgs/files/cntnts/20201123103426633_ttiel","https://www.visitbusan.net/uploadImgs/files/cntnts/20201123103426633_thumbL","해산물식당들이 모여 있는 기장 연화리해녀촌에서도 손꼽히는 해산물식당인 이 곳은 꾸준 하게 많은 사람들이 찾고 있는 곳으로 웨이팅은 기본이다. 전복죽과 전복철판구이가 이 곳의 인기메뉴."
"886","곤국","남구","35.1477","129.06758","곤국","곤국","-","부산 남구 황령대로74번길 51-1","-","010-2608-6586","-","am 11:30 ~ pm 20:00","한우 곰탕, 한우스지수육","https://www.visitbusan.net/uploadImgs/files/cntnts/20200819150211450_ttiel","https://www.visitbusan.net/uploadImgs/files/cntnts/20200819150211450_thumbL","곰탕전문식당인 이 곳은 오래 끓여 부드러운 고기와 맛이 진한 국물이 특징으로, 밥을 말아서 나오지 않고, 갓 지은 솥밥이 따로 제공된다."
"887","다이닝센 부산본점","남구","35.124435","129.11235","다이닝센 부산본점","다이닝센 부산본점","-","부산 남구 용호로 88","-","051-621-8833","-","am 11:30 ~ pm 21:00","쇠고기 찹스테이크 샐러드, 닭다리살 스테이크 샐러드","https://www.visitbusan.net/uploadImgs/files/cntnts/20200820090928003_ttiel","https://www.visitbusan.net/uploadImgs/files/cntnts/20200820090928003_thumbL","패밀리레스토랑 다이닝센은 직접 만드는 소스들을 사용하고, 비교적 저렴한 가격에 비해 높은 수준의 음식들이 제공된다. 행사를 위한 시설과 공간도 잘 준비되어 있다."
"888","스시로","남구","35.133785","129.11281","스시로","스시로","-","부산 남구 분포로 145","용호 더블유스퀘어 B동 1층","051-622-7715","-","am 11:30 ~ pm 22:00","기본스시(1접시), 프리미엄스시(1접시)","https://www.visitbusan.net/uploadImgs/files/cntnts/20200818150012866_ttiel","https://www.visitbusan.net/uploadImgs/files/cntnts/20200818150012866_thumbL","세계최대의 회전초밥체인 스시로의 분점으로, 레일 위의 초밥과는 별개로 초밥주문이 가능 하다. 초밥 안에 와사비가 들어 있지 않고 따로 제공되어, 어린이도 편하게 먹을 수 있는 것이 특징이다."
"889","이가한우한돈","남구","35.130768","129.11804","이가한우한돈","이가한우한돈","-","부산 남구 분포로 66-17","-","051-622-9100","-","am 11:00 ~ pm 22:00","숯불양념구이, 갈비살","https://www.visitbusan.net/uploadImgs/files/cntnts/20200818151207353_ttiel","https://www.visitbusan.net/uploadImgs/files/cntnts/20200818151207353_thumbL","맛, 서비스, 청결 모두가 높은 수준의 숯불구이전문식당으로, 광안대교와 해운대 마린시티가 함께 보이는 무척 멋진 바다전망을 자랑한다. 일본어로도 예약이 가능하다."
"890","오륙도 가원","남구","35.106773","129.11171","오륙도 가원","오륙도 가원","-","부산 남구 백운포로 14","-","051-635-0707","-","am 11:30 ~ pm 22:00","등심, 갈빗살","https://www.visitbusan.net/uploadImgs/files/cntnts/20200818151745396_ttiel","https://www.visitbusan.net/uploadImgs/files/cntnts/20200818151745396_thumbL","건축상을 받은 아름다운 외관과 잘 가꾸어진 넓은 잔디정원이 인상적이다. 이 곳은 유명한 한우숯불구이 전문식당으로, 제공되는 음식과 서비스 등 모든 것이 무척 고급스럽다."
"891","카페그리다","남구","35.130432","129.10039","카페그리다","카페그리다","-","부산 남구 유엔로 219-4","-","051-625-8510","-","am 10:00 ~ pm 23:00","스콘, 레몬애플티","https://www.visitbusan.net/uploadImgs/files/cntnts/20200818152403186_ttiel","https://www.visitbusan.net/uploadImgs/files/cntnts/20200818152403186_thumbL","분위기 좋은 플라워 카페로 수제 스콘이 맛있기로 유명하다. 정원과 그림이 있는 편안한 분위기의 카페로, 조용한 분위기에서 휴식을 가지고 싶다면 이 곳을 추천한다."
"892","한우랑","남구","35.130306","129.0949","한우랑","한우랑","-","부산 남구 유엔로 171","-","051-621-0334","-","am 11:00 ~ pm 22:00","한우 특수부위, 한우 꽃등심","https://www.visitbusan.net/uploadImgs/files/cntnts/20200818152932317_ttiel","https://www.visitbusan.net/uploadImgs/files/cntnts/20200818152932317_thumbL","한우 숯불구이 전문점으로 모든 메뉴는 국내에서 생산된 질 좋은 재료만 사용해 만들어진다. 한우는 특히 굽는 솜씨에 따라 맛의 차이가 크게 나는데, 이 곳은 숙련된 점원이 고기를 구워준다."
"893","해남김치식당","남구","35.134193","129.11122","해남김치식당","해남김치식당","-","부산 남구 분포로 145","용호동 더블유스퀘어","051-628-2015","-","am 11:00 ~ pm 22:00","묵은지수육한판, 옛날김치찌개","https://www.visitbusan.net/uploadImgs/files/cntnts/20200818153601185_ttiel","https://www.visitbusan.net/uploadImgs/files/cntnts/20200818153601185_thumbL","김치요리전문식당인 이 곳은 배추산지로 유명한 해남의 배추를 사용 하여, 오랜 시간 숙성시킨 묵은지를 사용하는 것이 특징이며, 다양한 김치요리를 먹을 수 있다. 해남묵은지에 대한 높은 자부심을 가지고 있다."
"894","고관해물탕","중구","35.126427","129.04521","고관해물탕","고관해물탕","-","부산 동구 중앙대로349번길 38","-","051-463-7585","-","am 11:00 ~ pm 22:30","해물탕, 대하구이","https://www.visitbusan.net/uploadImgs/files/cntnts/20200818154553221_ttiel","https://www.visitbusan.net/uploadImgs/files/cntnts/20200818154553221_thumbL","2대에 걸쳐 30년째 운영하고 있는 유명한 해물탕전문점으로, 매일 새벽 주인이 직접 자갈치 시장에서 구매해 오는 26가지 신선한 재료로 해물탕을 만든다. 이 곳의 주방장은 26년째 꾸준히 주방을 책임지고 있다."
"895","개미집본점","중구","35.10056","129.03","개미집본점","개미집본점","-","부산 중구 중구로30번길 22","-","051-246-3186","-","am 09:30 ~ pm 21:30","낙지볶음, 수중전골","https://www.visitbusan.net/uploadImgs/files/cntnts/20200819164844192_ttiel","https://www.visitbusan.net/uploadImgs/files/cntnts/20200819164844192_thumbL","부산의 향토음식인 낙지볶음전문점 중에서도 가장 유명한 식당인 개미집은 1972년부터 40 년이 넘게 영업해온 곳이다. 낙지볶음, 낙지새우볶음, 낙지곱창볶음, 수중전골, 불고기낙지 전골 등의 메뉴가 모두 인기 있다."
"896","달과 6펜스","동구","35.116924","129.04211","달과 6펜스","달과 6펜스","-","부산 동구 중앙대로226번길 7-2","-","051-441-0284","-","am 09:30 ~ pm 20:30","돈까쓰, 생선까스","https://www.visitbusan.net/uploadImgs/files/cntnts/20200818155508884_ttiel","https://www.visitbusan.net/uploadImgs/files/cntnts/20200818155508884_thumbL","35년간 운영해온 유명한 돈까스 전문식당 포크벨리 브랜드의 돼지고기와 임실치즈 등 질좋은 재료와 3시간을 끓여 만든 특제소스를 사용하여 만드는 돈까스의 맛은 오랜 시간이 지나도 변하지 않는 맛을 가지고 있다."
"897","루반도르 본점","동구","35.12906","129.04869","루반도르 본점","루반도르 본점","-","부산 동구 중앙대로 375-1","-","051-467-6666","-","am 09:30 ~ pm 20:30","새우 감자 바게뜨, 뽀빠이","https://www.visitbusan.net/uploadImgs/files/cntnts/20200818160010619_ttiel","https://www.visitbusan.net/uploadImgs/files/cntnts/20200818160010619_thumbL","전체적으로 수준이 높은 빵을 만들고 있는 이 곳은, 오너 파티쉐가 개발한 새우감자바게뜨가 특히 인기 있다. 황금색 리본을 사용한 포장으로, 선물을 받는 기분을 느낄 수 있는 루반 도르는 매달 마지막날 쿠폰 행사를 한다."
"898","남포삼계탕","중구","35.09879","129.03058","남포삼계탕","남포삼계탕","-","부산 중구 남포길 16-1","-","051-245-5075","-","am 10:30 ~ pm 22:00","삼계탕, 전기구이","https://www.visitbusan.net/uploadImgs/files/cntnts/20200819173447435_ttiel","https://www.visitbusan.net/uploadImgs/files/cntnts/20200819173447435_thumbL","광복로패션거리 근처에 있는 이 곳은 50년 이상 운영해 온 유명한 삼계탕 전문점으로, 대표 메뉴인 삼계탕은 뱃속에 찹쌀과 인삼, 밤, 대추를 채워 넣은 닭 한 마리를 육수에 넣고 뚝배 기에 끓는 채로 내어준다. 전기구이도 인기 있다."
"899","범일빈대떡","동구","35.13958","129.05623","범일빈대떡","범일빈대떡","-","부산 동구 중앙대로 519","-","051-646-0081","-","pm 15:00 ~ am 00:00","빈대떡, 파전","https://www.visitbusan.net/uploadImgs/files/cntnts/20200818161051284_ttiel","https://www.visitbusan.net/uploadImgs/files/cntnts/20200818161051284_thumbL","‘백종원의 3대천왕’이라는 유명 요리버라이어티쇼에 출연했던 곳으로, 지금은 흔치않은 빈대떡전문점이다. 오래된 감성을 가지고 있는 이 곳의 대표메뉴 빈대떡은 100% 녹두를 사용해서 만들며, 담백하면서도 고소한 매력적인 맛이다."
"900","노티스","중구","35.102207","129.0374","노티스","노티스","-","부산 중구 대교로 135","-","070-4114-8232","-","am 10:00 ~ pm 23:00","BLT샌드위치, 생과일주스","https://www.visitbusan.net/uploadImgs/files/cntnts/20200818161132627_ttiel","https://www.visitbusan.net/uploadImgs/files/cntnts/20200818161132627_thumbL","1950년에 지어진 쌀 창고를 현대적 감성으로 개조한 카페로, 건물의 올드함을 살린 인테리어가 인상적이다. 음료와 간단한 식사, 그리고 맥주와 와인도 준비되어 있는 이 곳은 100%착즙 주스인 생과일 주스와 샌드위치가 인기메뉴."
"901","도피오(한성1918)","중구","35.10182","129.03462","도피오(한성1918)","도피오(한성1918)","-","부산 중구 백산길 13","-","051-256-8184","-","am 10:00 ~ pm 19:00","케니AA, 에티오피아 예가체프","https://www.visitbusan.net/uploadImgs/files/cntnts/20200818162051625_ttiel","https://www.visitbusan.net/uploadImgs/files/cntnts/20200818162051625_thumbL","용두산공원 아래에 위치한 이 곳은 근대건축문화 자산으로 지정된 101년 된 건물을 개조한 곳으로, 문화 예술이 함께하는 공간에서 운영하는 아트 카페다. 케냐AA, 예가체프, 콜롬비아를 주원료로 하는 드립커피가 대표메뉴."
"902","스완양분식","동구","35.11807","129.04237","스완양분식","스완양분식","-","부산 동구 중앙대로236번길 7-5","-","051-634-2846","-","am 11:30 ~ pm 21:00","돈까스, 오므라이스","https://www.visitbusan.net/uploadImgs/files/cntnts/20200818162350301_ttiel","https://www.visitbusan.net/uploadImgs/files/cntnts/20200818162350301_thumbL","샐러드에 쓰는 마요네즈까지 모든 소스를 직접 만들고, 아침마다 전용 망치로 등심을 두드려 편다. 까다로운 조리방식을 고집스럽게 고수하며 만든 돈까스는 아주 오래전 돈까스가 특별한 음식이었던그 때의 맛을 기억나게 한다."
"903","비엔씨","중구","35.098366","129.03195","비엔씨","비엔씨","-","부산 중구 구덕로 34번길 3-1","-","051-245-2361","-","am 08:30 ~ pm 22:30","사라다빵, 파이만주","https://www.visitbusan.net/uploadImgs/files/cntnts/20200818165908772_ttiel","https://www.visitbusan.net/uploadImgs/files/cntnts/20200818165908772_thumbL","관광객들 사이에서는 부산 3대 빵집 중 한 곳으로 불리는 유명한 제과점으로, 1980~1990 년대 부산 최대번화가였던 이 곳의 대표적인 약속장소 이기도 했다. 오랜 시간 변하지 않는 맛을 지키고 있는 사라다빵과 파이만주가 특히 인기 있다."
"904","금강만두","동래구","35.196102","129.06027","금강만두","금강만두","-","부산 동래구 사직북로5번길 11","-","051-502-8784","-","am 10:30 ~ pm 22:00","충무세트(충무김밥+만두국), 육개장","https://www.visitbusan.net/uploadImgs/files/cntnts/20200818170548384_ttiel","https://www.visitbusan.net/uploadImgs/files/cntnts/20200818170548384_thumbL","찾기 힘든 골목에 위치해 미식가들만 찾아가는 숨은 가게였던 이 가게는 현재 사람들의 왕래가 많은 자리의 큰 점포로 옮겨 운영하고 있다. 만두가 맛있기도 하지만, 사실 이 곳은 매우면서도 깔끔한 맛의 육개장이 더욱 유명한 특이한 식당이다."
"905","백구당","중구","35.10483","129.03577","백구당","백구당","-","부산 중구 중앙대로 81번길 3","-","051-465-0109","-","am 08:00 ~ pm 22:30","크로이즌, 파이만주","https://www.visitbusan.net/uploadImgs/files/cntnts/20200818171008821_ttiel","https://www.visitbusan.net/uploadImgs/files/cntnts/20200818171008821_thumbL","1959년에 개업해 60년간 3대에 걸쳐 이어오고 있는 이 제과점은 부산에서 가장 오래된 제과점이며, 이름 있는 수많은 파티쉐들이 거쳐 간 곳이기도 하다. 부산 3대 빵집이라 불리 기도 하는 이 곳은 2대 주인이 개발한 크로이즌이 대표메뉴."
"906","고가옥","동래구","35.19736","129.06184","고가옥","고가옥","-","부산 동래구 아시아드대로161번길 70","-","051-505-3222","-","am 11:00 ~ pm 20:00","정식, 곤드레정식","https://www.visitbusan.net/uploadImgs/files/cntnts/20200819153254696_ttiel","https://www.visitbusan.net/uploadImgs/files/cntnts/20200819153254696_thumbL","가족들이 함께 운영하고 있는 한식당으로, 주방에서 어머니가 직접 음식을 만들고, 강원도 에서 직접 공수해온 재료들을 써서 건강한 음식을 만드는 것으로 유명한 식당이다. 곤드레 정식이 대표메뉴로, 제철재료들로 만든 반찬이 함께 제공된다."
"907","이승학돈까쓰","중구","35.09944","129.0307","이승학돈까쓰","이승학돈까쓰","-","부산 중구 광복로 49번길 2","-","051-246-4200","-","am 11:00 ~ pm 21:00","돈까쓰, 매운돈까스","https://www.visitbusan.net/uploadImgs/files/cntnts/20200818171626450_ttiel","https://www.visitbusan.net/uploadImgs/files/cntnts/20200818171626450_thumbL","20여년 운영해온 남포동의 유명 돈까스전문점으로 자체 개발한 특제 데미그라스 소스가 맛의 비결인 이 곳은, 오래 전 방식으로 식전 스프가 먼저 제공되고 주문한 음식이 따라나 온다. 특제 소스에 매운 맛이 가미된 매운 돈까스도 인기 있다."
"908","청기와 개미집","중구","35.10157","129.03438","청기와 개미집","청기와 개미집","-","부산 중구 백산길 16","-","051-246-0228","-","am 09:30 ~ pm 22:30","낙곱새 볶음, 돼지갈비","https://www.visitbusan.net/uploadImgs/files/cntnts/20200818172323693_ttiel","https://www.visitbusan.net/uploadImgs/files/cntnts/20200818172323693_thumbL","용두산공원 아래의 식당가에 위치한 이 곳은 특이하게도 한우나 돼지고기의 숯불구이와 양념갈비, 그리고 낙지볶음 해물탕 등의 여러 가지 음식을 모두 전문적으로 요리하는 식당 이다. 특히, 양념갈비와 낙지곱창새우볶음이 인기 있다."
"909","홍익돈까스","중구","35.099613","129.03027","홍익돈까스","홍익돈까스","-","부산 중구 광복로 45-8 1층","-","051-247-4503","-","am 11:30 ~ pm 21:30","홍익왕돈까스, 해물볶음우동","https://www.visitbusan.net/uploadImgs/files/cntnts/20200819165742887_ttiel","https://www.visitbusan.net/uploadImgs/files/cntnts/20200819165742887_thumbL","유명한 돈까스전문점인 홍익돈까스의 분점으로, 매장이 무척 청결하게 관리되고 있으며, 당일만 사용되는 신선한 재료만 사용하는 이 곳은 돈까스와 해물볶음우동이 대표메뉴이다. 푸짐한 양으로도 유명하다."
"910","미미참족발","동래구","35.199074","129.11194","미미참족발","미미참족발","-","부산 동래구 안락로 137","-","051-531-1235","-","am 11:30 ~ pm 21:30","족발, 냉채족발","https://www.visitbusan.net/uploadImgs/files/cntnts/20200820090748035_ttiel","https://www.visitbusan.net/uploadImgs/files/cntnts/20200820090748035_thumbL","십 년째 한 자리에서 부부가 같이 가게를 운영하고 있는 족발요리전문점으로, 족발조리법에 대한 특허를 가지고 있는 식당. 족발 삶을 때 들어가는 재료들은 주인이 직접 산에서 채취하고 동의대 학에 중금속 검사를 거쳐 사용하고 있다. 식어도 굳지 않고 부드러운 족발로 유명하다."
"911","고을산채","영도구","35.093414","129.0448","고을산채","고을산채","-","부산 영도구 대교로 2번길 7","-","051-417-4477","-","am 11:30 ~ pm 21:30","산채정식, 소고기버섯전골","https://www.visitbusan.net/uploadImgs/files/cntnts/20200818175032095_ttiel","https://www.visitbusan.net/uploadImgs/files/cntnts/20200818175032095_thumbL","2006년부터 운영해온 한식당으로, 모든 반찬들을 주인이 직접 만든다. 점심에는 제철반찬이 함께 제공되는 산채정식 비빔밥을 먹으러 오는 사람이 많으며, 저녁에는 소고기버섯전골과 곱창전골이 인기 있다. 저렴한 가격에 푸짐한 식사를 할 수 있는 곳"
"912","돌집","영도구","35.088924","129.03938","돌집","돌집","-","부산 영도구 남항로 26-7","-","051-412-6670","-","am 11:00 ~ pm 19:00","순두부정식, 제주 암돼지 오겹살","https://www.visitbusan.net/uploadImgs/files/cntnts/20200818175615187_ttiel","https://www.visitbusan.net/uploadImgs/files/cntnts/20200818175615187_thumbL","20년간 운영해온 순두부전문점인 이 곳은 깔끔한 반찬들과 생선반찬이 함께 제공되며, 주인이 직접 만든 김치 장아 찌들을 맛볼 수 있다. 5가지의 순두부 메뉴가 있는데, 돌집순두부찌개가 오랫 동안 인기 있는 메뉴. 채식주의자들을 순두부찌개메뉴도 있다."
"913","소문난주문진막국수","동래구","35.195953","129.05959","소문난주문진막국수","소문난주문진막국수","-","부산 동래구 사직로 58번길 8","-","051-501-7856","-","am 11:00 ~ pm 22:00","막국수, 수육","https://www.visitbusan.net/uploadImgs/files/cntnts/20200818175630468_ttiel","https://www.visitbusan.net/uploadImgs/files/cntnts/20200818175630468_thumbL","프로야구의 성지인 사직야구장 근처에 있는 아주 유명한 식당으로, 여름에는 정말 오래 기다려야 음식을 맛볼 수 있다. 부산의 대표적인 막국수전문점인 이 곳은 두툼하면서도 극단적으로 부드러운 돼지수육이 더욱 유명하다."
"914","본도시락 영도점","영도구","35.091194","129.03856","본도시락 영도점","본도시락 영도점","-","부산 영도구 남향로 9번길 34","-","051-417-4282","-","am 10:00 ~ pm 20:00","버섯불고기도시락, 대구식매운찜갈비 도시락","https://www.visitbusan.net/uploadImgs/files/cntnts/20200819092829796_ttiel","https://www.visitbusan.net/uploadImgs/files/cntnts/20200819092829796_thumbL","유명 프렌차이즈의 분점으로, 집에서 만든 식사처럼 깔끔하게 만든 도시락을 판매하고 있다. 50가지의 메뉴들이 있고 주문 즉시 조리되어 친환경용기에 담아 배달하는 것이 특징 이며, 배즙을 넣어 부드러운 소스의 버섯소불고기도시락이 인기메뉴."
"915","비토닉","영도구","35.087105","129.07648","비토닉","비토닉","-","부산 영도구 동삼동 201-2","-","051-997-4484","-","am 11:00 ~ pm 23:00","비토닉클래식, 아메리카노","https://www.visitbusan.net/uploadImgs/files/cntnts/20200819093501629_ttiel","https://www.visitbusan.net/uploadImgs/files/cntnts/20200819093501629_thumbL","들어서는 순간 민트색의 화사한 공간과 아름다운 바다풍경이 눈에 들어온다. 부둣가에 위치한 카페인 이 곳은 실내공간인 6층과 루프탑인 7층의 두개층으로 운영되고 있으며, 모카포트를 사용하여 추출한 커피에 부드러운 우유거품이 어우러진 비토닉클래식이 인기음료."
"916","고향맛","부산진구","35.15634","129.05879","고향맛","고향맛","-","부산 부산진구 중앙대로 711","-","051-803-1363","-","am 11:00 ~ pm 21:30","고향쌈정식, 고향영양돌솥밥","https://www.visitbusan.net/uploadImgs/files/cntnts/20200819093751976_ttiel","https://www.visitbusan.net/uploadImgs/files/cntnts/20200819093751976_thumbL","20년 경력의 주인이 직접 요리하는 한식당인 이곳은 오래된 방식으로 요리하는 가정식 음식으로, 추억의 맛을 그리워 하는 손님들이 많이 찾는 곳이다. 2인 이상 주문이 가능한 이 곳은 고등어조림이 특히 인기 있다."
"917","석화정","영도구","35.077095","129.07231","석화정","석화정","-","부산 영도구 동심로 42번길 16-11","-","070-8913-9989","-","am 09:00 ~ pm 21:00","굴국밥, 생굴","https://www.visitbusan.net/uploadImgs/files/cntnts/20200819094049234_ttiel","https://www.visitbusan.net/uploadImgs/files/cntnts/20200819094049234_thumbL","18년간 운영해 온 굴요리 전문점으로, 재철 생굴, 굴구이, 굴튀김, 굴파전, 굴김치 등 굴을 이용한 다양한 음식들을 즐길 수 있다. 특히, 대표메뉴인 굴국밥은 신선한 자연산 굴을 사용 하여, 깔끔하고 풍부한 맛으로 인기 있다."
"918","동해물회","부산진구","35.15796","129.06125","동해물회","동해물회","-","부산 부산진구 서전로 15","-","051-819-0500","-","am 09:00 ~ pm 21:00","물회잡어, 물회한치","https://www.visitbusan.net/uploadImgs/files/cntnts/20200819094618420_ttiel","https://www.visitbusan.net/uploadImgs/files/cntnts/20200819094618420_thumbL","39년 간 한 메뉴로 꾸준히 영업해온 오래된 물회 전문점으로, 자연산 회와 신선한 야채 등, 좋은 재료로 음식을 만든다. 직접 담은 장과 매일 자갈치 시장에서 공수하는 재료가 맛의 비밀인 이 곳은 직접 담은 된장으로 끓인 꽃게된장찌개가 함께 제공된다."
"919","에세떼","영도구","35.092514","129.03467","에세떼","에세떼","-","부산 영도구 대평북로 29 1층","-","051-913-2008","-","pm 12:00 ~ pm 22:00","2단 디저트 음료셋트, 1인 디저트 셋트","https://www.visitbusan.net/uploadImgs/files/cntnts/20200819094727609_ttiel","https://www.visitbusan.net/uploadImgs/files/cntnts/20200819094727609_thumbL","영도의 부둣가에 있는 깡깡이예술마을에 위치한 카페로, 오래된 공간과 물건들을 활용한 레트로한 인테리어가 인상적이다. 예쁘게 꾸며진 디저트가 진열되어 있는데, 모두 맛보고 싶은 마음을 진정시켜야 할 필요가 있다. 2단디저트음료셋트가 인기메뉴."
"920","에테르","영도구","35.077286","129.04646","에테르","에테르","-","부산 영도구 절영로 234","-","051-263-5055","-","am 09:00 ~ pm 23:00","동백, 목련, 모란","https://www.visitbusan.net/uploadImgs/files/cntnts/20200819095453441_ttiel","https://www.visitbusan.net/uploadImgs/files/cntnts/20200819095453441_thumbL","흰여울 문화마을의 중심지에 위치한 4층으로 구성된 루프탑 카페로, 전 층에서 영도의 멋진 바다풍경을 감상 할 수 있는 곳이다. 프랑스산 재료를 사용한 크로아상과 자체개발한 3종의 시그니처음료들이 인기 있다."
"921","미가정","부산진구","35.178314","129.0523","미가정","미가정","-","부산 부산진구 성지로 93번길 16","-","051-803-9185","-","am 11:00 ~ pm 22:00","오리소금구이, 막국수","https://www.visitbusan.net/uploadImgs/files/cntnts/20200820090538587_ttiel","https://www.visitbusan.net/uploadImgs/files/cntnts/20200820090538587_thumbL","가정집을 개조하여 만든 편안한 분위기의 식당으로, 대표음식인 생오리구이는 싱싱한 생오 리에 살짝 간을하여 버무린 후 채썰은 마늘과 땡초를 함께 구워서 먹는다. 직접 만든 육수와 면을 사용하는 막국수도 인기 있다."
"922","오채담","영도구","35.07159","129.05785","오채담","오채담","-","부산광역시 영도구 절영로 355","-","051-404-5012","-","pm 12:00 ~ pm 21:00","평일점심, 평일저녁","https://www.visitbusan.net/uploadImgs/files/cntnts/20200819100237373_ttiel","https://www.visitbusan.net/uploadImgs/files/cntnts/20200819100237373_thumbL","유명한 외식장소인 목장원의 3층에 위치한 한식뷔페로, 음식 가짓수 보다는 제대로 만든 음식을 추구하는 식당이다. 아름다운 바다를 조망하면서 특급호텔 출신의 주방장이 직접 조리 하는 건강한 계절별 한식요리를 즐길 수 있는 곳."
"923","스콜","부산진구","35.15995","129.05627","스콜","스콜","-","부산 부산진구 서면문화로 32","-","051-715-7115","-","am 11:30 ~ am 01:00","스콜 건배 라거, 애플 콰트로 피자","https://www.visitbusan.net/uploadImgs/files/cntnts/20200819100422822_ttiel","https://www.visitbusan.net/uploadImgs/files/cntnts/20200819100422822_thumbL","비어 소믈리에가 운영하는 게스트로 비어펍으로, 31가지의 다양하고 독특한 수제맥주와 함께 수준높은 음식을 함께할 수 있는 곳이다. 긴 시도 끝에 만들어진 스콜 건배 라거가 대표 맥주이며, 애플 콰트로 피자, 스파이시 투움바 파스타 등이 인기메뉴."
"924","태종아리랑","영도구","35.072357","129.0748","태종아리랑","태종아리랑","-","부산 영도구 와치로 328","-","051-404-9292","-","am 11:30 ~ pm 21:00","아리랑갈비, 한방갈비탕","https://www.visitbusan.net/uploadImgs/files/cntnts/20200819100829200_ttiel","https://www.visitbusan.net/uploadImgs/files/cntnts/20200819100829200_thumbL","이 지역의 유명한 외식장소로 한우구이를 전문으로 하는 한식당인 이 곳은, 바다와 해양박 물관등이 보이는 멋진 풍경과 함께 식사를 즐길 수 있는 곳이다. 숙성된 소고기를 사용하여 부드러운 양념갈비와 갈비탕이 인기메뉴"
"925","아까돔보이자까야","부산진구","35.15535","129.05508","아까돔보이자까야","아까돔보이자까야","-","부산 부산진구 부전로 58-1","-","051-926-1259","-","pm 16:00 ~ am 04:00","사시미, 수제치킨가라아게","https://www.visitbusan.net/uploadImgs/files/cntnts/20200819101347215_ttiel","https://www.visitbusan.net/uploadImgs/files/cntnts/20200819101347215_thumbL","본격적인 일본식선술집인 이 곳은 요리명장의 칭호를 가지고 있는 오너쉐프가 모든 요리를 직접 만든다. 유명인사들이 많이 찾아오기도 하는 곳으로, 계절별로 가장 맛있는 생선을 사용한 사시미가 특히 유명하다."
"926","디저트시네마","연제구","35.176273","129.09052","디저트시네마","디저트시네마","-","부산 연제구 쌍미천로 32-1","-","051-867-5757","-","pm 12:00 ~ pm 19:00","오리지널크로아상, 시네마우유","https://www.visitbusan.net/uploadImgs/files/cntnts/20200819102205754_ttiel","https://www.visitbusan.net/uploadImgs/files/cntnts/20200819102205754_thumbL","빵이 맛있기로 소문난 디저트카페로 주말만 영업하기 때문에 가게가 오픈하는 12시 이전부터 대기하는 손님들이 길게 줄을 서는 곳이다. 크로아상이 특히 인기있으며, 조금 늦게 찾아 오면 모든 빵이 매진되어 버리는 대참사가 일어나기도 한다."
"927","양산도히츠마부시","부산진구","35.15395","129.06264","양산도히츠마부시","양산도히츠마부시","-","부산 부산진구 동천로 58","-","051-803-1092","-","am 11:30 ~ pm 21:00","히츠미부시, 부타동","https://www.visitbusan.net/uploadImgs/files/cntnts/20200820090450344_ttiel","https://www.visitbusan.net/uploadImgs/files/cntnts/20200820090450344_thumbL","할머니에서 손자까지 이어진 60년 전통의 민물장어식당인 양산도에서 운영하는 곳으로, 나고야식 장어덮밥인 히츠마부시를 전문으로 하고 있다. 다양한 방법으로 먹을 수 있는 히츠마 부시를 먹기 위한 손님들로 항상 붐비고 있는 곳."
"928","북경","연제구","35.18377","129.08086","북경","북경","-","부산 연제구 중앙대로 1076번길 11","-","051-863-0055","-","am 11:30 ~ pm 21:30","짜장면, 짬뽕","https://www.visitbusan.net/uploadImgs/files/cntnts/20200819172514790_ttiel","https://www.visitbusan.net/uploadImgs/files/cntnts/20200819172514790_thumbL","연산동의 중심가골목에 위치한 중식당으로 요리를 전문으로 하여 이 지역 회사원들이 회식장소로도 자주 찾는 곳이다. 모든 메뉴의 수준이 높은 곳이기도 하지만, 특히 짜장면이 맛있기로 유명하다."
"929","연산낙지해물탕","연제구","35.182316","129.10692","연산낙지해물탕","연산낙지해물탕","-","부산 연제구 괴정로 121","-","051-758-8838","-","pm 12:00 ~ pm 22:00","해물탕, 산낙지전골","https://www.visitbusan.net/uploadImgs/files/cntnts/20200819103408604_ttiel","https://www.visitbusan.net/uploadImgs/files/cntnts/20200819103408604_thumbL","해물탕은 원래 푸짐한 해산물들이 담겨 나오는 음식이지만, 이 곳의 해물탕은 음식을 잘모르는 사람도 싱싱하다는 것을 알 수 있는 해산물들이 뚜껑이 닫히지 않을 정도로 담겨 나온다. 해물탕이 익을 때쯤 살아있는 낙지를 손질해 넣어주는 것이 특징이다."
"930","양말례남원추어탕","연제구","35.181675","129.07516","양말례남원추어탕","양말례남원추어탕","-","부산 연제구 중앙대로 1043번길 50","-","051-863-9911","-","am 11:00 ~ pm 21:30","추어탕, 가오리무침","https://www.visitbusan.net/uploadImgs/files/cntnts/20200819170746679_ttiel","https://www.visitbusan.net/uploadImgs/files/cntnts/20200819170746679_thumbL","16년째 운영중인 추어탕전문점으로 친절한 점원들의 밝은 웃음이 인상적인 식당이다.추어탕은 보통 부산식과 남원식으로 분류되고 두가지를 모두 판매하는 곳이 많은데, 이 곳은 묵직한 맛이 특징인 남원식추어탕을 전문으로 만든다."
"931","장어다움","부산진구","35.15579","129.05508","장어다움","장어다움","-","부산 부산진구 부전로66번길 6","-","051-806-5997","-","pm 16:00 ~ am 03:00","장어구이, 장어탕","https://www.visitbusan.net/uploadImgs/files/cntnts/20200819104034982_ttiel","https://www.visitbusan.net/uploadImgs/files/cntnts/20200819104034982_thumbL","30년간 3대에 걸쳐 운영하고 있는 장어요리전문점으로, 붕장어와 곰장어 요리를 만든다. 이 곳의 인기비결은 주인이 직접 만든 특제 소스인데, 특제소스로 맛을 낸 붕장어구이가 대표메뉴이다."
"932","웰빙여행","연제구","35.181526","129.07504","웰빙여행","웰빙여행","-","부산 연제구 중앙대로 1043번길 50","-","051-864-3455","-","am 10:00 ~ pm 21:30","매생아칼국수, 고기만두","https://www.visitbusan.net/uploadImgs/files/cntnts/20200819170519954_ttiel","https://www.visitbusan.net/uploadImgs/files/cntnts/20200819170519954_thumbL","부산시청 근처의 칼국수와 만두전문점으로, 매생이 칼국수, 들깨 칼국수 등 조금 특별한 칼국수와 함께 푸짐한 만두전골을 먹을 수 있는 곳이다. 만두는 매일매일 직접만들며, 여름에는 직접 갈아만든 콩칼국수를 판매하기도 한다."
"933","옻바다 전복삼계탕","연제구","35.18473","129.08128","옻바다 전복삼계탕","옻바다 전복삼계탕","-","부산 연제구 월드컵대로 119번길 16","-","051-862-3307","-","am 10:00 ~ pm 22:00","옻삼계탕, 삼계탕","https://www.visitbusan.net/uploadImgs/files/cntnts/20200819105118416_ttiel","https://www.visitbusan.net/uploadImgs/files/cntnts/20200819105118416_thumbL","연산동 중심가골목에 위치한 삼계탕전문점으로, 대표적인 보양음식인 옻나무삼계탕에 전복을 추가하여 먹을 수 있는 것이 특징이다. 식전주로 옻술이 제공되는 이 곳은 TV프로그램에도 소개 된 유명한 식당이다."
"934","조경식베이커리","부산진구","35.15419","129.03696","조경식베이커리","조경식베이커리","-","부산 부산진구 대학로 14","-","051-897-4476","-","am 06:30 ~ pm 23:00","파티쉐 추천 인기 세트 7개","https://www.visitbusan.net/uploadImgs/files/cntnts/20200819153648161_ttiel","https://www.visitbusan.net/uploadImgs/files/cntnts/20200819153648161_thumbL","그 날 만든 빵은 그날 판다. 정직하게 장사한다. 기본적이지만, 쉽지 않은 두 가지 원칙을 지키며 운영하는 동네빵집으로, 전통적인 빵메뉴와 트랜디한 빵메뉴가 반반씩 만들어지고 있다. 허니 마들렌과 허니 쌀 카스테라가 특히 인기 있다."
"935","참참부자","연제구","35.185333","129.08035","참참부자","참참부자","-","부산 연제구 월드컵대로 145번길 23","-","051-851-1969","-","am 11:30 ~ pm 22:00","일식코스, 참치코스","https://www.visitbusan.net/uploadImgs/files/cntnts/20200819105753999_ttiel","https://www.visitbusan.net/uploadImgs/files/cntnts/20200819105753999_thumbL","연산동 중심가골목에 위치한 일식코스전문점으로, 참치와 자연산회를 맛볼 수 있는 곳이다. 코스요리를 전문으로 하는 곳인 만큼 회는 물론이며, 음식 하나하나가 높은 수준이다.점심한정메뉴를 찾는 손님도 많은 곳"
"936","팔미초밥","연제구","35.184906","129.0818","팔미초밥","팔미초밥","-","부산 연제구 월드컵대로 119번길 8","-","051-861-7679","-","am 11:30 ~ pm 22:00","생선초밥, 코스요리","https://www.visitbusan.net/uploadImgs/files/cntnts/20200819110257649_ttiel","https://www.visitbusan.net/uploadImgs/files/cntnts/20200819110257649_thumbL","부산의 대표적인 일식전문점 중 한 곳으로, 상업지역인 이 지역에서도 손님을 대접하기 좋은 곳으로 유명한 식당이다. 30년 경력의 오너쉐프가 운영하고 있으며, 이 곳의 코스요리는 가격에 비해 높은 만족도를 자랑한다."
"937","초함","부산진구","35.179195","129.05237","초함","초함","-","부산 부산진구 성지로 101","-","051-802-9090","-","am 11:00 ~ am 04:00","오리백숙, 해물갈비찜","https://www.visitbusan.net/uploadImgs/files/cntnts/20200819110414227_ttiel","https://www.visitbusan.net/uploadImgs/files/cntnts/20200819110414227_thumbL","편안한 분위기의 한식당으로 유명한 이 곳은 동굴을 연상시키는 인테리어와 프라이빗한 좌석이 인상적이다. 주로 오리백숙, 해물갈비찜 등 중량감 있는 한식요리를 판매하고 있는이 곳은 아이돌그룹의 멤버였던 주인이 운영하는 것으로도 유명하다."
"938","김영표과자점","수영구","35.143402","129.1146","김영표과자점","김영표과자점","-","부산 수영구 광안해변로 95","-","051-623-1188","-","am 08:00 ~ pm 23:00","꽈배기도너츠, 생크림빵, 소보루","https://www.visitbusan.net/uploadImgs/files/cntnts/20200819110810766_ttiel","https://www.visitbusan.net/uploadImgs/files/cntnts/20200819110810766_thumbL","대한민국 제과기능장인 오너파티쉐가 운영하는 제과점으로, 대표메뉴는 꽈배기도넛, 생크 림빵, 소보로인데, 꽈배기도넛은 며칠 뒤 먹어도 식감이 첫날처럼 부드럽고, 생크림빵은 진한 우유의 맛이, 소보로는 비어있는 빵속에 버터가 발려있는 것이 특징이다."
"939","파전닭갈비","부산진구","35.1704","129.06879","파전닭갈비","파전닭갈비","-","부산 부산진구 거제대로22번길 16","-","051-818-3823","-","pm 16:00 ~ am 02:00","닭갈비, 해물파전","https://www.visitbusan.net/uploadImgs/files/cntnts/20200819153611943_ttiel","https://www.visitbusan.net/uploadImgs/files/cntnts/20200819153611943_thumbL","여러 가지 토핑메뉴를 추가하여 섞어먹을 수 있는 것이 매력적인 닭갈비전문점으로 식사보 다는 음주를 즐기는 손님들이 많이 찾는 곳이기도 하다. 해물파전을 비롯해 술과 함께 하기 좋은 다양한 메뉴들도 갖춰져 있다."
"940","계스토랑","수영구","35.156147","129.12398","계스토랑","계스토랑","-","계스토랑","-","051-753-1118","-","pm 17:00 ~ am 00:00","목살, 가슴연골","https://www.visitbusan.net/uploadImgs/files/cntnts/20200819172923037_ttiel","https://www.visitbusan.net/uploadImgs/files/cntnts/20200819172923037_thumbL","닭의 특수부위를 취급하는 특이한 숯불구이 전문점으로, 닭과 레스토랑을 합한 네이밍 센스가 즐겁다. 가게 이름 그대로 일반적인 고기 집과는 다른 레스토랑 분위기인 이 곳에서 먹는 숯불닭구이는 와인과도 잘 어울릴 것 같다."
"941","권가네맷돌순두부","북구","35.230762","129.00977","권가네맷돌순두부","권가네맷돌순두부","-","부산 북구 용당로5번길 17","-","051-325-4893","-","am 10:00 ~ pm 21:00","순두부청국장, 순두부 백반","https://www.visitbusan.net/uploadImgs/files/cntnts/20200819154421420_ttiel","https://www.visitbusan.net/uploadImgs/files/cntnts/20200819154421420_thumbL","택시기사들이 추천하는 믿을 수 있는 식당으로, 20여년을 운영해 온 순두부전문점인 이 곳은 가게에서 직접 순두부를 만들어 사용하여, 순두부 자체가 맛있기로도 유명하다. 제철 재료로 만드는 반찬은 셀프로 제한 없이 먹을 수 있다."
"942","다리집","수영구","35.146637","129.11076","다리집","다리집","-","부산 수영구 수영로 464번길 7","-","051-625-0130","-","am 11:30 ~ pm 21:00","오징어튀김, 떡볶이","https://www.visitbusan.net/uploadImgs/files/cntnts/20200819112147736_ttiel","https://www.visitbusan.net/uploadImgs/files/cntnts/20200819112147736_thumbL","부산에서 가장 유명한 떡볶이전문점 중 한 곳으로, 천막장사를 하던 시절에 가게에 들어선 손님들의 다리들만 보여 다리집이 되었다고 하는 이 곳은 한 개만 먹어도 배가 부를 것 같은, 큼직한 떡볶이와 큼직한 오징어튀김이 유명하다."
"943","더박스","수영구","35.163902","129.1285","더박스","더박스","-","부산 수영구 민락수변로 241","-","070-8832-0549","-","am 10:30 ~ pm 23:30","에스프레소음료, 커피 외 음료","https://www.visitbusan.net/uploadImgs/files/cntnts/20200820113638861_ttiel","https://www.visitbusan.net/uploadImgs/files/cntnts/20200820113638861_thumbL","고급 레스토랑 같은 분위기에서 커피를 즐길 수 있는 카페. 수영강변에 자리하는 이 곳은, 창가에 앉으면 잔잔히 흐르는 강과 센텀시티가 한눈에 보인다. 그날그날 다른 핸드드립 커피를 즐길 수 있으며 수제 초콜릿도 인기 있다."
"944","남촌흑돼지","북구","35.21074","129.00595","남촌흑돼지","남촌흑돼지","-","부산 북구 금곡대로 8번길 14","-","051-335-9294","-","am 10:00 ~ pm 22:00","흑돼지 한마리, 흑돼지 반마리","https://www.visitbusan.net/uploadImgs/files/cntnts/20200819154352300_ttiel","https://www.visitbusan.net/uploadImgs/files/cntnts/20200819154352300_thumbL","청정지역인 지리산 아래 산청의 흑돼지만 사용하고 있는 믿을 수 있는 돼지구이전문점이다. 사용되는 흑돼지 자체가 일반적인 돼지고기와 식감과 맛의 차이가 많이 나며, 껍데기가 붙어 있는 오겹살 흑돼지 고기를 쓰는 것이 특징이다."
"945","도농한우전문식당","수영구","35.14274","129.10986","도농한우전문식당","도농한우전문식당","-","부산 수영구 남천동로 10","-","051-621-8283","-","am 11:30 ~ pm 22:00","생꽃등심, 생갈비살","https://www.visitbusan.net/uploadImgs/files/cntnts/20200819172720431_ttiel","https://www.visitbusan.net/uploadImgs/files/cntnts/20200819172720431_thumbL","현재 위치에서 27년간 운영해 온 한우숯불구이 전문점으로, 소고기 외에도 돼지고기, 샤브 샤브 등의 메뉴를 판매하는 곳이다. 실내는 넓고 깔끔한 한정식 집 분위기로 반찬들도 한정식 집처럼 깔끔하고 섬세하게 담겨 나온다."
"946","마비스커피","북구","35.210957","129.00967","마비스커피","마비스커피","-","부산 북구 만덕대로 42","-","051-343-1116","-","am 09:00 ~ pm 22:30","핸드드립커피5종, 생과일패스츄리","https://www.visitbusan.net/uploadImgs/files/cntnts/20200819113223433_ttiel","https://www.visitbusan.net/uploadImgs/files/cntnts/20200819113223433_thumbL","북구 최초의 로스터리 카페로 개업한 이래 10 년 동안 꾸준히 사랑받아 온 카페. 매장에서 직접 로스팅한 신선한 원두로 커피를 만드는 만큼 커피 맛이 보증되어 있으며, 갓 구운 빵들도 함께 즐길 수 있다. 산지 별 다양한 커피를 즐길 수있는 것이 특징이다."
"947","순살빵순쌀나라","수영구","35.14582","129.11499","순살빵순쌀나라","순살빵순쌀나라","-","부산 수영구 광안해변로 122","-","051-623-3775","-","am 08:00 ~ am 01:00","치즈쉬폰, 백미식빵","https://www.visitbusan.net/uploadImgs/files/cntnts/20200819113644935_ttiel","https://www.visitbusan.net/uploadImgs/files/cntnts/20200819113644935_thumbL","빵을 만들 때 밀가루를 사용하지 않고 쌀가루만 사용하는 독특한 제과점으로, 소화가 잘돼 노인과 아이, 환자가 먹기에도 부담스럽지 않다. 특히 다이어트에 관심이 높은 셀러브리티가 좋아하는 빵집으로도 유명하다."
"948","스위스제과","수영구","35.14679","129.11168","스위스제과","스위스제과","-","부산 수영구 광남로 45","-","051-623-5885","-","am 07:00 ~ am 00:00","치즈타르트, 통팥빵","https://www.visitbusan.net/uploadImgs/files/cntnts/20200819114307256_ttiel","https://www.visitbusan.net/uploadImgs/files/cntnts/20200819114307256_thumbL","1983년 개업한 이 곳은 좋은 제과점이 많아 빵천동이란 별칭으로 불리는 이 지역에서 가장 오래된 제과점이다. 일본의 유명 빵집들을 연구하고, 독일제 오븐을 도입하는 등 연구와 설비에 투자를 아끼지 않는 곳으로 식빵과 통팥빵 등이 인기 있다."
"949","북경의자전거","북구","35.230934","129.00957","북경의 자전거","북경의 자전거","-","부산광역시 북구 용당로5번길 14","-","051-335-9294","-","am 11:30 ~ pm 22:00","짜장면, 탕수육","https://www.visitbusan.net/uploadImgs/files/cntnts/20200820091146813_ttiel","https://www.visitbusan.net/uploadImgs/files/cntnts/20200820091146813_thumbL","본격적인 중국풍의 인테리어가 특색있는 이 중식당은 중국인 쉐프들이 요리하고 있는 것으로 유명하다. 사용되는 면은 전통방식인 수타로 만들고, 다양하고 많은 종류의 요리들을 만드는 단골 손님이 많은 가게이다."
"950","언양불고기부산집","수영구","35.1479","129.11357","언양불고기부산집","언양불고기부산집","-","부산 수영구 남천바다로 32","-","051-754-1004","-","am 11:00 ~ pm 22:00","언양불고기, 등심","https://www.visitbusan.net/uploadImgs/files/cntnts/20200819114726472_ttiel","https://www.visitbusan.net/uploadImgs/files/cntnts/20200819114726472_thumbL","부산에서 가장 유명한 불고기전문점 중 한 곳으로, 30여년의 역사를 가지고 있다. 한우암소 등심을 사용하고 간장과 마늘을 베이스로 한 양념이 특징인 언양불고기가 대표메뉴로 다소 높은 가격이지만, 꼭 먹어볼만한 가치가 있다."
"951","심우촌","북구","35.24159","129.02373","심우촌","심우촌","-","부산 북구 산성로 100","-","051-332-4535","-","am 10:00 ~ pm 22:00","오리백숙, 오리정식","https://www.visitbusan.net/uploadImgs/files/cntnts/20200819154234479_ttiel","https://www.visitbusan.net/uploadImgs/files/cntnts/20200819154234479_thumbL","금정산 끝자락의 개울 앞에 위치하는 오리고기전문점으로, 주인의 형제들이 직접 농사지은 재료를 사용하여 음식을 만들고 있다. 국내산 한약 재료를 넣고 푹 삶아 만든 백숙과 석쇠에 구운 오리가 제공되는 오리정식이 대표메뉴다."
"952","탑해장","수영구","35.15513","129.12698","탑해장국","탑해장국","-","부산 민락수변로7번길 60","-","051-756-5332","-","am 08:00 ~ am 00:00","탑해장, 매생이해장국","https://www.visitbusan.net/uploadImgs/files/cntnts/20200819165944645_ttiel","https://www.visitbusan.net/uploadImgs/files/cntnts/20200819165944645_thumbL","제주도에서 온 해장국전문점으로, 은근한 야채육수와 탑처럼 쌓인 담백한 제주산 돼지고기가 특징이다. 고명처럼 올라간 표고버섯과 고기를 육수에 잠기게 한 다음 간장소스에 샤브 샤브 처럼 찍어먹는 특이한 음식이다."
"953","식당3선(덕천점)","북구","35.21927","129.00708","식당3선(덕천점)","식당3선(덕천점)","-","부산 북구 금곡대로 112","-","051-333-0050","-","am 11:00 ~ pm 23:00","양념돼지갈비, 고추장돼지갈비","https://www.visitbusan.net/uploadImgs/files/cntnts/20200819154140644_ttiel","https://www.visitbusan.net/uploadImgs/files/cntnts/20200819154140644_thumbL","숯불구이, 파삼겹구이, 밀면 등을 맛볼 수 있는 식당인 이곳은 나이와 취향에 관계없이 즐길 수있는 대중적인 맛이 특징으로, 넓은 공간을 가지고 있어 가족외식장소로 인기 있다. 메인요리인 숯불구이는 조리되어 제공되어서 먹기 편하다."
"954","이해욱의 커피가게","북구","35.212193","129.00616","이해욱의 커피가게","이해욱의 커피가게","-","부산 북구 만덕대로15번길 39","-","051-338-1858","-","am 11:00 ~ pm 22:00","오늘의커피, 더치커피","https://www.visitbusan.net/uploadImgs/files/cntnts/20200819130443727_ttiel","https://www.visitbusan.net/uploadImgs/files/cntnts/20200819130443727_thumbL","작지만 조용하고 여유있게 커피를 즐길 수있는 공간이다. 이 지역의 골목가게에서 9년째 운영하고 있는 커피전문점. 책을 보는 것도 사장님이 모은 소품을 구경하는 것도 좋고 작지만 다양한 볼거리가 있는 공간으로, 깔끔하고 밸런스 있는 커피 맛으로 단골손님 들이 많다."
"955","태극당","수영구","35.159813","129.11385","태극당","태극당","-","부산 수영구 수영로 606","-","051-752-6247","-","am 07:00 ~ pm 23:00","흑깨전병, 에그타르트","https://www.visitbusan.net/uploadImgs/files/cntnts/20200819170135181_ttiel","https://www.visitbusan.net/uploadImgs/files/cntnts/20200819170135181_thumbL","40여년을 운영해온 오래된 동네빵집으로, 다양한 빵들을 판매하고 있다. 전병류의 전통적인 과자들과 전통적인 빵들이 많아 시간이 거꾸로 흐른 느낌이 들기도 하는 이곳의 대표메뉴는 흑깨전병과 에그타르트."
"956","F1963","수영구","35.176826","129.11491","F1963","F1963","-","부산 수영구 구락로 123번길","-","051-756-1963","-","am 09:00 ~ pm 21:00","아메리카노, 카페라떼","https://www.visitbusan.net/uploadImgs/files/cntnts/20200819173059093_ttiel","https://www.visitbusan.net/uploadImgs/files/cntnts/20200819173059093_thumbL","(구)고려제강의 공장을 개조하여 만든 복합문화공간 F1963에 입점한 테라로사커피팩토리는 손몽주 작가의 와이어를 이용한 설치 작품을 시작으로, 기존 공장의 오래된 물건들을 활용한 인테리어가 무척 특별하다. 산지별 커피와 매일 굽는 천연발효빵과 디저트들이 준비되어 있다."
"957","평창막국수","북구","35.207775","129.00723","평창막국수","평창막국수","-","부산 북구 덕천로 21","-","051-336-0707","-","am 10:00 ~ pm 21:00","메밀막국수, 메밀비빔막국수","https://www.visitbusan.net/uploadImgs/files/cntnts/20200820091108331_ttiel","https://www.visitbusan.net/uploadImgs/files/cntnts/20200820091108331_thumbL","막국수를 메인으로 한 한식전문점으로, 면으로 만들기 힘든 메밀을 면으로 만드는 숨은 노하우를 가지고 있다. 막국수의 육수는 국내산 한우로 만들고 계절마다 다른 고명이 올려 진다. 여름음식인 막국수지만 따듯한 육수와 함께 먹을 수 있어 겨울에도 손님들이 많이 찾는 곳이다."
"958","함경면옥","북구","35.21178","129.00423","함경면옥","함경면옥","-","부산 북구 금곡대로 21","-","051-363-5000","-","am 11:00 ~ pm 21:20","물냉면, 회비빔면","https://www.visitbusan.net/uploadImgs/files/cntnts/20200820091029413_ttiel","https://www.visitbusan.net/uploadImgs/files/cntnts/20200820091029413_thumbL","22년의 전통을 가지고 있는 함흥냉면 전문점으로, 메뉴에 들어가는 모든 재료들을 직접 만든다. 고구마 전분 특유의 탄력과 쫄깃함을 가진 함흥식 냉면 사리가 특징이며, 진한 육수가 맛있는 물냉면과 숙성된 가오리 회가 올라가는 회비빔면이 인기메뉴이다."
"959","홍옥당","수영구","35.146893","129.11392","홍옥당","홍옥당","-","부산 수영구 남천동로 108번길 49","-","051-627-1026","-","am 10:00 ~ pm 22:00","단팥빵, 단팥죽","https://www.visitbusan.net/uploadImgs/files/cntnts/20200819131636744_ttiel","https://www.visitbusan.net/uploadImgs/files/cntnts/20200819131636744_thumbL","광안리해수욕장 앞 골목길에 위치한 아담한 이 가게는 국산 팥만을 사용하여 음식들을 만드는 팥전문점이다. 팥빙수와 단팥죽, 단팥빵이 유명한데, 특히 단팥빵의 인기가 높아 빵을 사가려는 사람들의 줄이 길게 늘어서곤 한다."
"960","디에이블","서구","35.076706","129.01715","디에이블","디에이블","-","부산 서구 충무대로 47 3층","-","051-231-9177","-","am 11:00 ~ pm 22:00","디에이블 파스타, 디에이블 피자","https://www.visitbusan.net/uploadImgs/files/cntnts/20200819132345743_ttiel","https://www.visitbusan.net/uploadImgs/files/cntnts/20200819132345743_thumbL","유명한 양식레스토랑인 디에이블의 분점으로, 가게 전체에서 보이는 멋진 바다풍경 속에서 특별한 식사를 할 수 있는 곳이다. 시그니처 메뉴인 피자는 페스츄리 도우를 사용해 촉촉한 것이 특징이며, 특제소스를 사용해 매콤하면서 고소한 파스타도 인기 있다."
"961","몽실종가돼지국밥","서구","35.10016","129.01721","몽실종가돼지국밥","몽실종가돼지국밥","-","부산 서구 까치고개로 197번길 3","-","051-256-0133","-","am 08:00 ~ pm 22:00","돼지국밥, 수육백반","https://www.visitbusan.net/uploadImgs/files/cntnts/20200819132813484_ttiel","https://www.visitbusan.net/uploadImgs/files/cntnts/20200819132813484_thumbL","감천문화마을 근처에 있는 돼지국밥전문점으로, 청결한 실내와 친절한 점원들이 인상적이 다. 사골뼈를 24시간 이상 푹 고아 만든 국물이 유명하고, 국밥에 들어가는 고기양과 고기 종류를 선택할 수 있는 것이 특징이다."
"962","본도시락","서구","35.10385","129.02046","본도시락","본도시락","-","부산 서구 구덕로 214번길 9","-","051-231-4280","-","am 09:00 ~ pm 20:00","일품 불고기 도시락","https://www.visitbusan.net/uploadImgs/files/cntnts/20200819133343168_ttiel","https://www.visitbusan.net/uploadImgs/files/cntnts/20200819133343168_thumbL","유명 프렌차이즈의 분점인 이 곳은 어느 정도 맛이 보장되어 있는 곳이기도 하지만, 특히 위생에 많은 노력을 기울이고 있는 식당이기도 하다. 깔끔하고 다양한 반찬과 적당한 양이 특징이며, 일품 불고기 도시락이 특히 인기 있다."
"963","식당토성동","서구","35.097954","129.02257","식당토성동","식당토성동","-","부산 서구 구덕로 124번길 27","-","010-4679-1425","-","am 10:00 ~ pm 20:00","한입 스테이크 덮밥, 돈카츠","https://www.visitbusan.net/uploadImgs/files/cntnts/20200819133843312_ttiel","https://www.visitbusan.net/uploadImgs/files/cntnts/20200819133843312_thumbL","의외의 장소에 자리하고 있는 아담하고 예쁜 인테리어의 덮밥전문점으로, 간단한 음식, 깔끔한 맛, 친절한 서비스로 유명한 곳이다. 모든 음식이 인기메뉴이긴 하지만, 손질과 숙성을 거쳐 부드러운 맛의 한입 스테이크 덮밥이 대표메뉴라고 한다."
"964","청죽","서구","35.11293","129.01305","청죽","청죽","-","부산 서구 망양로 23","-","051-247-8555","-","am 11:30 ~ pm 22:00","점심코스, 저녁코스","https://www.visitbusan.net/uploadImgs/files/cntnts/20200819134238418_ttiel","https://www.visitbusan.net/uploadImgs/files/cntnts/20200819134238418_thumbL","입구까지 이어진 근사한 정원이 멋진 일식코스요리전문점으로, 이 지역에서는 상견례 등격조 있는 모임의 장소로 많이 이용하는 곳이다. 비교적 비싼 가격의 식당이지만, 맛과 서비스 모두 충분히 만족스러운 곳이라고 한다. 일본식코스요리가 대표메뉴."
"965","편의방","서구","35.11915","129.01625","편의방","편의방","-","부산 서구 대신공원로 13","-","051-256-2121","-","am 10:30 ~ pm 20:30","삼선만두, 군만두","https://www.visitbusan.net/uploadImgs/files/cntnts/20200819134644126_ttiel","https://www.visitbusan.net/uploadImgs/files/cntnts/20200819134644126_thumbL","빨간 간판이 눈에 띄는 이 곳은 3대째 이어오는 중국만두전문점으로, 하루에 40인분 한정 에, 30분전에 미리 전화로 주문해야 한다는 삼선만두가 유명한 곳이다. 주문과 동시에 만드는 삼선만두는 각종야채와 새우가 가득 차 육즙이 흘러넘친다."
"966","동원장수촌","사하구","35.10194","128.97113","동원장수촌","동원장수촌","-","부산 사하구 동매로 117","-","051-202-4100","-","am 11:00 ~ pm 21:40","한방 녹두 백숙, 능이백숙","https://www.visitbusan.net/uploadImgs/files/cntnts/20200819172146946_ttiel","https://www.visitbusan.net/uploadImgs/files/cntnts/20200819172146946_thumbL","도자기 장인이 빚어낸 둥그런 뚝배기에 음식을 담아내는 보양음식전문점으로, 모임 등의 장소로도 인기 있는 곳이기도 하다. 한방녹두백숙이 특히 인기있는 메뉴로 황기 구기자 감초 등의 한약제와 녹두오리를 오래 삶아 보약 같은 국물과 부드러운고기가 특징이다."
"967","쉐라미 과자점","사하구","35.099815","128.99103","쉐라미 과자점","쉐라미 과자점","-","부산 사하구 낙동대로 238","-","051-208-0033","-","am 08:00 ~ pm 23:00","통팥빵, 크림빵","https://www.visitbusan.net/uploadImgs/files/cntnts/20200819172024802_ttiel","https://www.visitbusan.net/uploadImgs/files/cntnts/20200819172024802_thumbL","1974년 향미당으로 시작한 부산에서 가장 오래된 제과점중 한 곳으로, 3대째 이어오고 있다.100여가지의 빵이 만들어지고 있으며, 전통적인 빵과 트렌디한 빵이 함께 놓여있다. 통팥빵, 애플파이, 크림빵이 가장 오래되고 유명한 메뉴."
"968","아비앙또카페","사하구","35.065857","128.98152","아비앙또카페","아비앙또카페","-","부산 사하구 다송로 17","-","051-264-2089","-","am 07:30 ~ pm 23:00","파네토네, 앙버터데니쉬","https://www.visitbusan.net/uploadImgs/files/cntnts/20200819141103473_ttiel","https://www.visitbusan.net/uploadImgs/files/cntnts/20200819141103473_thumbL","제과기능장인 오너파티쉐가 운영하는 제과점으로 새로운 메뉴들도 출시하고 오래된 메뉴들도 놓치지 않고 만들어 많은 종류의 빵을 하루에 두 번 굽는다고 한다. 대표 메뉴인 파네토네는 천연발효를 하는데 숙성에 5일이 걸리고 만드는데 9일이 걸린다고 한다."
"969","포항가자미물회","사상구","35.169525","128.98228","포항가자미물회","포항가자미물회","-","부산 사상구 사상로 275-1","-","051-303-6640","-","pm 12:00 ~ pm 21:00","여름물회, 겨울물회","https://www.visitbusan.net/uploadImgs/files/cntnts/20200819143114772_ttiel","https://www.visitbusan.net/uploadImgs/files/cntnts/20200819143114772_thumbL","소박한 느낌의 동네식당으로, 시원한 물회에 국수를 말아먹는 것으로 유명한 물회 전문점이다. 갖은 양념에 무쳐진 회와 물회 육수가 따로 제공되며, 여름에는 신선한 토마토에 싸먹고 겨울에는 김에 싸먹는 것으로 유명한 곳이다."
"970","파밀리아제과점","사상구","35.138035","128.97838","파밀리아제과점","파밀리아제과점","-","부산 사상구 대동로 101","-","051-326-7671","-","08:00~23:00","몽블랑, 크린베리쌀빵","https://www.visitbusan.net/uploadImgs/files/cntnts/20200819143730207_ttiel","https://www.visitbusan.net/uploadImgs/files/cntnts/20200819143730207_thumbL","이 곳의 오너파티쉐는 명인으로 불리는 제과기능장으로, 이 지역에서 20여년간 가게를 운영 해오고 있다. 매일 백가지가 넘는 빵 메뉴를 만들고 있으며, 특히 반죽비율을 달리하여, 페스 츄리가 들어가 바삭한 맛의 몽블랑이 인기 있다."
"971","양산도집","사상구","35.130474","128.97055","양산도집","양산도집","-","부산 사상구 낙동대로 799-34","-","051-311-4098","-","am 11:30 ~ pm 21:00","민물장어구이","https://www.visitbusan.net/uploadImgs/files/cntnts/20200819172537379_ttiel","https://www.visitbusan.net/uploadImgs/files/cntnts/20200819172537379_thumbL","같은 자리에서 2대에 걸쳐 65년 동안 운영해온 민물장어구이점으로, 국내산 장어를 이용하여 은은한 단맛의 간장 양념을 발라 숯불에 구워 한입 크기로 잘라주는 민물장어양념구이가 무척 인기 있다. 오래된 가게라 굉장히 많은 단골들을 가진 식당이다."
"972","부전돼지국밥","사상구","35.164146","128.984","부전돼지국밥","부전돼지국밥","-","부산 사상구 사상로 214","-","051-311-9898","-","24시간영업","돼지국밥, 순대국밥","https://www.visitbusan.net/uploadImgs/files/cntnts/20200819172655163_ttiel","https://www.visitbusan.net/uploadImgs/files/cntnts/20200819172655163_thumbL","사상시외버스터미널 앞 번화가에 24시간 운영하고 있는 돼지국밥전문점으로, 전통적인 방식의 돼지국밥을 만들고 있다. 사골 육수와 공기밥을 제한없이 리필해 주는 파격적인 서비스가 특징이며, 손님들에 맞춰 다양한 메뉴가 제공되는 셀프바를 운영하고 있다."
"973","비상","사상구","35.12371","128.96237","비상","비상","-","부산 사상구 강변대로 420-7","-","051-326-8080","-","am 11:00 ~ am 00:00","아인슈페너, 미숙이라떼","https://www.visitbusan.net/uploadImgs/files/cntnts/20200819150153010_ttiel","https://www.visitbusan.net/uploadImgs/files/cntnts/20200819150153010_thumbL","탁트인 낙동강 뷰와 아름다운 노을 인더스트리 얼과 빈티지 디자인을 접목한 공간으로, 조각 상과 올드카, 다양한 그림을 전시하여 갤러리 같은 느낌의 카페로, 빔프로젝트를 이용해 영화를 상영하기도 한다. 아이스커피위에 생크림을 얹은 아인슈페너가 인기메뉴이다."
"974","괘법쭈꾸미","사상구","35.163906","128.98459","괘법쭈꾸미","괘법쭈꾸미","-","부산 사상구 광장로81번길 33","-","051-323-1383","-","am 11:30 ~ am 00:30","웰빙쭈꾸미","https://www.visitbusan.net/uploadImgs/files/cntnts/20200819161305335_ttiel","https://www.visitbusan.net/uploadImgs/files/cntnts/20200819161305335_thumbL","2007년 괘법동에서 시작한 이 지역의 대표적인 쭈꾸미요리전문점으로, 직접 만든 비법소스를 사용하여 매우면서도, 자꾸 먹게 되는 맛이 특징이다. 대표메뉴는 웰빙쭈꾸미이며, 단일 메뉴로 꾸준한 맛을 유지 하고 있는 것이 오랜 인기의 비결이다."
